business_id,name,neighborhood,address,city,state,postal_code,latitude,longitude,stars,review_count,is_open,categories,Attire,Noise
Gs_jpJB5f3a1jCQjV7QHQA,Barroco,Null,12718 Larchmere Blvd,Cleveland,OH,44120,41.48739570000001,-81.5936889,4.5,25,1,Latin American;Colombian;Restaurants;Caribbean;Bars;Venezuelan;Nightlife,casual,average
rkzU4UiTTXF54-FOELy9eA,Fiesta Jalapeños Mexican Grill,Null,35051 Center Ridge Rd,North Ridgeville,OH,44039,41.3933555,-82.0066258,4.5,49,0,Mexican;Restaurants,casual,average
WKlMFUCGI7dCysGkFLWvaQ,Stagioni,South Side,2104 E Carson St,Pittsburgh,PA,15203,40.4282783,-79.9760041,4.0,108,1,Nightlife;Venues & Event Spaces;Event Planning & Services;Bars;Restaurants;Wine Bars;Italian;Breakfast & Brunch;Pizza,casual,average
s_VG6L9GP6oiPUZF4uM1HQ,Charlie's - The Coffeehouse LKN,Null,9606 Bailey Rd,Cornelius,NC,28031,35.458016,-80.868084,4.5,18,0,Coffee & Tea;Food,,
nGJfnTKRz56ZvT8IcB7ToQ,Le Slang Labo à Manger,Notre-Dame-de-Grâce,5669 Avenue de Monkland,Montréal,QC,H4A 1E4,45.4748965,-73.6237158,3.5,15,0,International;Bars;Restaurants;Canadian (New);Nightlife,casual,average
1_JE-znLDfnIMVCpjZCZyA,Icon Painting,Null,305 W Pacifico Cir,Litchfield Park,AZ,85340,33.4909134,-112.3612555,4.5,11,1,Painters;Contractors;Home Services,,
ziv21pDfyrgdhlrlNIgDfg,Mr Antenna USA,Sunrise,254 Clarges Ln,Las Vegas,NV,89110,36.164086,-115.05122250000001,4.5,33,1,Home Services;Television Service Providers;Local Services,,
h5bikOqgdlti36nCPFIOAQ,Sher Institute For Reproductive Medicine,Spring Valley,"5320 S Rainbow Blvd, Ste 300",Las Vegas,NV,89118,36.0918495,-115.24208780000001,4.5,21,1,Medical Centers;Health & Medical;Fertility;Endocrinologists;Doctors,,
tsMGzc9o-tYXB3sa9meFXQ,Westlake Montessori School Child Care Center And Camp,Null,26830 Detroit Rd,Westlake,OH,44145,41.468553799999995,-81.91711,2.5,3,1,Local Services;Child Care & Day Care;Education;Montessori Schools;Elementary Schools;Preschools,,
ZHQU79PMUGCX0fEoyCcWlw,Caribbean Spice,Null,"219 E Baseline St, Ste H001",Tempe,AZ,85283,33.3779782868,-111.936617212,3.5,211,1,Restaurants;Caribbean,casual,quiet
wTTNXThF1RQ3Lu5FnujmOA,Banter Beer & Wine,Detroit-Shoreway,7320 Detroit Ave,Cleveland,OH,44102,41.4828338486,-81.7353930723,4.5,102,1,American (New);Restaurants;Nightlife;Beer;Wine & Spirits;Food,casual,average
VcXzF9hKUyJZNrNgkzsiXg,Freeway Insurance Services,Westside,2605 S Decatur,Las Vegas,NV,89102,36.142663,-115.2094889,3.0,8,1,Auto Insurance;Financial Services;Home & Rental Insurance;Insurance,,
5tvjRsiXfr54LN4GY1k3BA,"Leslie R Fish, DDS",Null,"1200 W Warner Rd, Ste 3",Chandler,AZ,85224,33.3359503,-111.86177250000001,4.5,30,1,Oral Surgeons;Health & Medical;Dentists,,
coQ7N18I5maP00TbNb64nA,Bar 11,South Side,1101 Bradish St,Pittsburgh,PA,15289,40.427172399999996,-79.9874543,4.0,51,1,Bars;Dive Bars;Nightlife;Dance Clubs,,very_loud
MBuzv0Q1cWUWzvSb6KKlFQ,EOS Fitness,Null,"2745 W Centennial Pkwy, Ste 115",North Las Vegas,NV,89031,36.2762708,-115.1778529,4.0,65,1,Active Life;Trainers;Gyms;Fitness & Instruction,,
d0N5HcdMCeXcX81hcRVUFw,McDonald's,Southeast,2550 E Sunset Rd,Las Vegas,NV,89120,36.07191829999999,-115.11538,2.5,26,1,Restaurants;Fast Food;Burgers,casual,average
oxeW1tSB-e_oIzCQZtqyTw,Noodlecat,Gateway District,234 Euclid Ave,Cleveland,OH,44114,41.4993443136,-81.6919741294,3.0,467,0,Japanese;American (New);Restaurants;Noodles;Ramen,casual,average
QmFLQZcmEB05vfDsYcVvKw,Cactus CrossFit,Null,7018 E Indian School Rd,Scottsdale,AZ,85251,33.4952272,-111.9299239,5.0,17,0,Fitness & Instruction;Trainers;Active Life;Gyms,,
dAtT3iwh3Os5lkA7TySvNg,Top 1,Null,165 E Beaver Creek Road,Richmond Hill,ON,L4B 3P4,43.8471466,-79.3789542,3.0,21,1,Chinese;Restaurants;Barbeque;Seafood,casual,average
N_423HZadpb28GsecF3SxQ,La Mexicana Bakery and Deli,Downtown,235 N Eastern Ave,Las Vegas,NV,89101,36.1651291,-115.11644809999999,3.5,5,1,Delis;Restaurants,,
83rCR68Lq1loTiCTYCzN_Q,Under Armour Factory House,Steele Creek,5524 New Fashion Way,Charlotte,NC,28278,35.1708474,-80.9707484,3.0,3,1,Fashion;Sporting Goods;Women's Clothing;Shopping;Men's Clothing;Sports Wear,,
jVZ7iweZ9mJmYav4RT2YuQ,"Black, Starr & Frost",Null,3140 E Camelback Rd,Phoenix,AZ,85016,33.5104270502,-112.01403075299999,5.0,5,1,Shopping;Watches;Jewelry Repair;Local Services;Jewelry,,
7KgNnFtTwn1p34UjeRQseg,Melissa Shoes,The Strip,"3200 S Las Vegas Blvd, Ste 2045, Fashion Show Mall",Las Vegas,NV,89109,36.12722410000001,-115.17155120000001,4.5,3,1,Shopping;Fashion;Shoe Stores,,
lwOuoY4YW1j9zl0RWIIP4A,Grape & Barley,Null,"1933 Hoffman Rd, Ste 4",Gastonia,NC,28054,35.2254112,-81.1337295,4.5,14,1,Nightlife;Bars;Beer;Wine & Spirits;Wine Bars;Food,,average
MuhLK0FVzlXqekau2PWA0A,Steak Queen,Etobicoke,345 Rexdale Boulevard,Etobicoke,ON,M9W 1R6,43.71488970000001,-79.5863938,3.5,14,0,Steakhouses;Restaurants;Greek,casual,average
6ICyDCN_2zpALedXRM8SVA,Sports Connection - Northlake,Null,8626 Hankins Rd,Charlotte,NC,28269,35.3418986,-80.8337108,3.5,13,1,Arcades;Summer Camps;Soccer;Playgrounds;Arts & Entertainment;Rock Climbing;Climbing;Active Life,,
fpq8H7tPv8gK3me02NASfg,Paradise Bakery,Null,"21001 N Tatum Blvd, Ste 1630",Phoenix,AZ,85050,33.6763391812,-111.971772251,2.5,76,0,Sandwiches;Bakeries;Food;Breakfast & Brunch;Restaurants,casual,loud
N-fv0TjH8UWW8VrQj4br9Q,British Automotive Repair,Null,"14850 N 83rd Pl, Ste A-1",Scottsdale,AZ,85260,33.620642700000005,-111.90149299999999,4.5,18,1,Auto Repair;Automotive,,
ou9Tkq5um2_zvs9k2yJv6w,Madison KOA,Null,4859 County Road V,De Forest,WI,53532,43.248075,-89.370734,3.5,10,1,Hotels & Travel;Campgrounds;RV Parks,,
j9mD5Eg36wX1ygH1_C4MyA,Dunlap & Magee,Null,"11260 N Tatum Blvd, Ste 149",Phoenix,AZ,85028,33.589499700000005,-111.9783862,3.0,4,1,Home Services;Real Estate;Property Management,,
FxdlM_hQbvawncbudVf99g,Sparky's Spot,Null,1608 Rt 8,Glenshaw,PA,15116,40.536052500000004,-79.962065,3.5,8,0,Burgers;Restaurants;Bars;American (New);Beer;Wine & Spirits;Nightlife;Food;Sandwiches;American (Traditional);Dive Bars,casual,
d7ZqJlSbyZHETKzj9XhJAg,Green Tea Lounge,Null,"3160 Steeles Avenue E, Unit 118",Markham,ON,L3R 4G9,43.815358294300005,-79.3446992903,3.5,30,1,Food;Japanese;Coffee & Tea;Restaurants,casual,quiet
A77zYLnUgl7eUyY9y-iWjQ,Carolina Foot & Ankle,Null,"16419 Northcross Dr, Ste A",Huntersville,NC,28078,35.4393752,-80.87180699999999,1.0,3,1,Podiatrists;Shopping;Shoe Stores;Fashion;Sports Medicine;Doctors;Health & Medical,,
U50YoWOEmagNix2sbD-yMg,Chez Cora,Mercier-Hochelaga-Maisonneuve,5670 Rue Sherbrooke E,Montréal,QC,H1N 1A1,45.5730463,-73.5492323,3.5,14,1,Restaurants;French,casual,
2FX-3kEaNfw4irfoylhx9A,Ajax Pet Care Centre,Null,363 Finley Avenue,Ajax,ON,L1S 2E2,43.8405753,-79.03006640000001,2.0,3,1,Pet Services;Pet Sitting;Pets,,
uEgu1yUZoxpczqJRvKseDQ,Regal Cinemas Middleburg Town Square 16,Null,18348 Bagley Rd,Middleburg Heights,OH,44130,41.3742396,-81.8302015,3.5,18,1,Cinema;Arts & Entertainment,,
i0HpLiawX5lYc2tl41Q3ow,Kelseys Original Roadhouse,Null,10 Kingston Rd W,Ajax,ON,L1T 4K8,43.861636299999994,-79.0267248,3.0,16,1,Canadian (New);Bars;Restaurants;Nightlife;Comfort Food;Food,casual,
2ggCa6Lfc3M2xtQwjwMPfg,Subway,Null,16208 Madison Ave,Lakewood,OH,44107,41.4780122,-81.81100409999999,3.5,3,1,Sandwiches;Restaurants;Fast Food,casual,average
ypdBChAtn3Y3mKFWtuUGAA,"Whitening Xpressions, LLC",Null,"1835 E Elliot Rd, Ste 105",Tempe,AZ,85284,33.3483528,-111.90881329999999,1.5,15,0,Health & Medical;General Dentistry;Beauty & Spas;Cosmetics & Beauty Supply;Cosmetic Dentists;Dentists;Shopping,,
ZTVWHEAl-1jA_pLyL21s4g,Cafe Stratos,Null,23642 Lorain Rd,North Olmsted,OH,44070,41.4329068,-81.883702,3.0,30,1,Greek;Cafes;American (Traditional);Breakfast & Brunch;Restaurants,casual,quiet
oCAX3BQqnesqxSEvYw6s2g,The Whale Island,Chinatown,4490 Spring Mountain Rd,Las Vegas,NV,89102,36.126585999999996,-115.201741,4.0,6,0,Restaurants;Korean,,
RCKf_8W4mkQzjffgYmJK1A,Portofino On the Lake,Null,,Lake Las Vegas,NV,89011,36.0949,-114.9239,2.0,5,1,Arts & Entertainment;Shopping;Art Galleries,,
7VYFL_s1HK1vOU-dzyW1Ew,Z-Cafe,Null,"1245 W Baseline Rd, Ste 105",Mesa,AZ,85202,33.37831,-111.861418,4.5,170,1,Delis;Sandwiches;Cafes;Restaurants,casual,average
7zeopyMwmDrKSJ1RD1UU7w,Mandarin Restaurant - Scarborough,Scarborough,2206 Eglinton Avenue E,Scaroborough,ON,M1L 4S7,43.7305328,-79.2796392,3.5,44,1,Restaurants;Buffets;American (New);Chinese,casual,average
qKBCJqN6ZnpXf5Hc2lJqzA,Green Grotto,Downtown Core,35 St Joseph Street,Toronto,ON,M4Y 1J8,43.6656219209,-79.3870541932,2.0,21,1,Desserts;Coffee & Tea;Tea Rooms;Food,,
B4evJ-qTO-FRCYUBbul3Cw,Dr Copy Printing,Wychwood,637  St. Clair Avenue W,Toronto,ON,M6C 1A7,43.681807299999996,-79.42400479999999,1.0,3,1,Printing Services;Local Services,,
vTqKk3FgwwLgfCcV7F1jmw,Ming's Garden,Null,1209 Business 18 and 151 E,Mount Horeb,WI,53572,43.009679,-89.724915,3.5,3,0,Chinese;Restaurants,casual,quiet
tJyXQ8xziSqK7dtB0Md3mw,Boston's Restaurant & Sports Bar,Null,400 W University Dr,Tempe,AZ,85281,33.4221689,-111.944507,3.0,65,0,Sports Bars;Nightlife;Bars;Restaurants;Pizza,casual,average
tjjBLnu753gMiYntJ4UALA,Rack Attack Car Rack & Hitch Centres,Erin Mills,3145 Dundas Street W,Mississauga,ON,L5L 5V8,43.520334999999996,-79.68632779999999,1.0,3,1,Shopping;Sporting Goods;Bikes,,
30Oz53-5jRn2A8ELUk1vrg,Plaza Premium Lounge,Null,5600 American Drive,Mississauga,ON,L4W 1S9,43.685843788599996,-79.6220354363,3.5,8,1,Airport Lounges;Bars;Nightlife,,quiet
GshYYRd6qYSPVsB7-gE2CQ,Capital Mark,Null,1530 S Val Vista Dr,Gilbert,AZ,85296,33.322367,-111.756204,5.0,11,1,Contractors;Kitchen & Bath;Home Services;Shopping;Home & Garden;Cabinetry,,
k3mCkkv_r8plkz6byKcLlQ,Laitue & Go,Sud-Ouest,100 Rue Peel,Montréal,QC,H3C,45.4931751533,-73.5572198799,3.0,4,1,Canadian (New);Restaurants,,
E4U8RCe42CpT3rtof7hEwQ,Wendy's,Null,2691 Freeport Rd,Pittsburgh,PA,15238,40.538093100000005,-79.83542259999999,1.0,5,1,Burgers;Fast Food;Restaurants,,
Qn4uBYKhawBKSZCPblIxuw,Infiniti Of Charlotte,Null,9103 East Independence Blvd,Matthews,NC,28105,35.141539,-80.718096,4.0,25,1,Auto Parts & Supplies;Automotive;Body Shops;Car Dealers;Auto Repair,,
K_LPRrt7GwuBbFIrCYG8Jw,The Pit Stop Bar & Grille,Null,9750 Olde 8 Rd,Sagamore Hills,OH,44067,41.325526,-81.53788309999999,3.0,5,1,American (Traditional);Bars;Nightlife;Restaurants,casual,
OncI6A-cqaUODaXK0qnemQ,DoubleTree By Hilton Hotel Pittsburgh - Monroeville,Null,101 Mall Blvd,Monroeville,PA,15146,40.431988,-79.79361340000001,3.0,34,1,Event Planning & Services;Hotels;Hotels & Travel,,
PSMJesRmIDmust2MUw7aQA,Yogurt In,The Strip,3950 Las Vegas Blvd S,Las Vegas,NV,89119,36.0934209685,-115.1761449,2.5,89,1,Cafes;Food;Restaurants;Desserts;Ice Cream & Frozen Yogurt,casual,
GArBoO3Xr96eg3mbxWMlrw,College Hunks Hauling Junk and Moving,Null,"3545 Centre Cir, Ste A",Fort Mill,SC,29715,35.0929846,-80.9249298,5.0,4,1,Packing Services;Home Services;Movers;Local Services;Junk Removal & Hauling,,
M_JZsxuSquWmqcETqz3bNg,Krazy Sub-Steve's,Null,1211 N Country Club Dr,Mesa,AZ,85201,33.436521,-111.8391989,3.5,29,1,Sandwiches;Restaurants,casual,average
WiI6cXuXOv_3ZsAXMVR5jw,Wok Chef,Null,1 Felcher Boulevard,Whitchurch-Stouffville,ON,L4A 7X4,44.0334649,-79.2973712,4.5,5,1,Food Delivery Services;Food;Chinese;Restaurants,,
jUnS8REftaFlO9hPdHS1ug,All Star Donuts,Downtown,1615 Las Vegas Blvd S,Las Vegas,NV,89104,36.1517191,-115.15175959999999,3.5,6,0,Food;Donuts,,
WVooBkZ8Ond9J5ZwMduMNQ,Green Grove Bubble Tea House,Milliken,4350 Steeles Avenue E,Markham,ON,L3R 9V4,43.8254466,-79.3050432,3.5,4,0,Food;Tea Rooms,,
hHVovM_cr6GSrjDTyWfsuQ,Cheddar's Casual Cafe,Null,2101 N Prospect Ave,Champaign,IL,61822,40.1413931,-88.2584949,3.5,5,0,Restaurants;American (Traditional),casual,
Hlm-Md6o9-6uAVvReMfKng,Foundation Transportation,Industrial Valley,,Cleveland,OH,44101,41.4908027,-81.6726759,5.0,3,1,Limos;Party Bus Rentals;Airports;Airport Shuttles;Tours;Event Planning & Services;Travel Services;Transportation;Hotels & Travel,,
Km0sT7E_dc2U1BkyRoy1xA,"Akahana - Asian Bistro, Bar & Sushi",Null,"940 Market St, Ste 124",Fort Mill,SC,29708,35.0284830828,-80.9673952684,3.0,122,1,Chinese;Restaurants;Japanese;Asian Fusion,casual,average
9opBpj_d1TCv_J41dAUhBw,7-Eleven,Null,1006 S Mcclintock Dr,Tempe,AZ,85281,33.4181769026,-111.909503415,3.5,3,1,Food;Convenience Stores;Grocery,,
bEskt5WGDd_WpOGJ1dIu1A,East Valley Family Medical,Null,606 North Country Club Dr,Mesa,AZ,85201,33.4264462,-111.84034479999998,1.0,5,1,Health & Medical;Medical Centers,,
2HJhfjU1flynaBmp1HrrKA,The Roasting Company,Plaza Midwood,1332 Central Ave,Charlotte,NC,28205,35.2200929,-80.8156233,4.0,14,1,Sandwiches;Southern;American (Traditional);Restaurants,casual,loud
HgGlXbspI9K93mQZWnH2Jg,Johnston & Murphy Shop,Null,7014 E Camelback Rd,Scottsdale,AZ,85251,33.50283710000001,-111.92941979999999,4.0,4,1,Shoe Stores;Fashion;Shopping,,
Qgp9sGKbqj9TuJyyc3m5zg,Steel City Pet Sitters and Dog Walkers,Bellevue,,Pittsburgh,PA,15202,40.4974532,-80.0603445,5.0,13,1,Pet Services;Pets;Pet Groomers;Dog Walkers;Pet Sitting,,
qOg6-gFdSw18zYu8s0pcTg,Royalty Beauty Bar,Highland Creek,"1222 E Blvd, Ste B",Charlotte,NC,28203,35.3424129871,-80.7644984292,3.5,3,1,Hair Salons;Beauty & Spas;Blow Dry/Out Services;Hair Extensions;Hair Stylists,,
woeN9aLmohpUYu4NSn7IDg,Fortune Restaurant,Milliken,4300 Steeles Avenue E,Markham,ON,L3R 0Y5,43.8261994,-79.30631740000001,2.5,7,0,Restaurants;Food Court;Asian Fusion;Chinese,casual,loud
MW20l3gVlw7NzATSOV7Qkw,Porchetta & Co,Null,545 King Street W,Toronto,ON,M5V 1M1,43.6445031,-79.3988108,4.0,113,1,Restaurants;Sandwiches;Food Delivery Services;Caterers;Food;Event Planning & Services,casual,average
I9l4WyLBzFz6Kh9q3Zf_rg,Kumon Math and Reading Center of Las Vegas - Aliante,Centennial,"6475 N Decatur Blvd, Ste 140",Las Vegas,NV,89131,36.276908,-115.20833999999999,4.0,3,1,Test Preparation;Education;Tutoring Centers;Educational Services;Local Services;Private Tutors;Child Care & Day Care,,
T-nFmMyeXckeRuOPj3FMNA,Truckmasters,Null,3152 E Bell Rd,Phoenix,AZ,85032,33.6410526,-112.01403090000001,3.0,16,1,Used Car Dealers;Auto Loan Providers;Car Dealers;Automotive,,
GAgEoHcf4PSuZRS5Zd3ltA,Q's Shawarma,Etobicoke,1075 Martin Grove Road,Toronto,ON,M9W 4W6,43.7019234,-79.5755415,4.0,12,1,Mediterranean;Restaurants,casual,
r2QA4VrBl6YQDJZKOYymyQ,Les P'tits Enfants de Felice,Plateau-Mont-Royal,5563 Avenue du Parc,Montréal,QC,H2V 4H2,45.5224306704,-73.6024848603,5.0,4,1,Cafes;Restaurants,,
DZ4EHnAsirGI6Nm14LPR1A,Graham Floral Shoppe,Null,9787 Olde 8 Rd,Northfield,OH,44067,41.3257841,-81.53634509999999,5.0,6,1,Flowers & Gifts;Shopping;Florists,,
1rg46WC1ka48NnOZatJsAg,The Dress,Null,228 S Court St,Medina,OH,44256,41.1374959,-81.8639903,4.5,6,1,Shopping;Bridal,,
QhthxGS9pR5tpP-SJ36pSA,US Post Office,Dormont,3038 W Liberty Ave,Pittsburgh,PA,15216,40.392613405,-80.0375407934,2.0,4,1,Local Services;Public Services & Government;Post Offices;Shipping Centers,,
C8PNX4RrH5aAbp5x22ka_Q,University Square Dental Associates,Capitol,517 N Lake St,Madison,WI,53703,43.075450599999996,-89.39703100000001,4.0,4,1,Cosmetic Dentists;General Dentistry;Oral Surgeons;Dentists;Medical Centers;Health & Medical,,
uW0ceue2V_7JJfsA3l_O1w,Street Coffee,Null,625 N 7th St,Phoenix,AZ,85006,33.455507298,-112.064926197,4.5,79,1,Coffee & Tea;Internet Cafes;Food,,
kuQtE_ERgRxIbSnSIxEWCg,Whimsical Nails,Null,"13637 N Tatum Blvd, Ste 19",Phoenix,AZ,85032,33.611188279699995,-111.976041173,4.5,58,1,Nail Salons;Beauty & Spas,,
8GXJuY9gujZ0y7oAuhPJiw,Nail Rainbow,Null,756 S Gilbert Road,Gilbert,AZ,85296,33.3361113,-111.79060790000001,3.5,3,0,Nail Salons;Beauty & Spas,,
XOMMGur7FZBAhFLhp9JU8Q,The Apothecarium,Westside,"7885 W Sahara Ave, Ste 112",Las Vegas,NV,89117,36.142674299999996,-115.26261869999999,4.5,80,1,Cannabis Clinics;Shopping;Health & Medical;Cannabis Dispensaries,,
gu6XP0gTiQ_RqJedz8sXVg,Armstrong McCall,Westside,"450 S Buffalo Dr, Ste 106",Las Vegas,NV,89145,36.166584014899996,-115.25966644299999,3.0,5,1,Cosmetics & Beauty Supply;Beauty & Spas;Shopping,,
j7iZlrStsr4OPaig1z4GFg,Pamper Me Head-To-Toe Spa,Cornell,3024 Bur Oak Avenue,Markham,ON,L6B 1E3,43.886448,-79.22921269999999,2.0,4,0,Beauty & Spas;Nail Salons;Day Spas,,
jsCDq6Pe-wEWxfBjRyh9ZA,Philistine,Parkdale,1394 Queen St W,Toronto,ON,M6K 1L7,43.6413193,-79.43382259999998,4.0,4,0,Fashion;Used;Vintage & Consignment;Shopping,,
2UUKAgADXH-ESyRdAE0mYA,Scottsdale Skin Needling,Null,"7514 E Monterey, Ste 3A",Scottsdale,AZ,85251,33.48617,-111.918718,4.5,9,1,Health & Medical;Beauty & Spas;Medical Spas,,
Ap8ol_gh3xNkndeSbT9SEw,CJ Trivisonno - Trivisonno Real Estate Team,Null,29225 Chagrin Blvd,Cleveland,OH,44122,41.4628958,-81.4722738,5.0,3,1,Marketing;Real Estate Services;Professional Services;Home Services;Real Estate Agents;Real Estate,,
zIYzpJ70IEgQI_kAZF0a4g,Nippy Taxis,Null,Albion Road,Scarborough,NYK,YO11 2BT,54.2753,-0.401067,2.5,3,1,Hotels & Travel;Transportation;Taxis,,
MM5Fdfqf87QpTkHIKZNVdg,Spoon & Fork Plus,Null,478 Dundas Street W,Oakville,ON,L6H 6Y3,43.466212299999995,-79.7432983,3.5,53,1,Italian;Japanese;Restaurants;Thai,casual,average
d0eZOgsF_YzJO-RtSZPoJQ,Sweet Fix Bakery,Etobicoke,500 Rexdale Boulevard,Toronto,ON,M9W 6K5,43.720509899999996,-79.6000778,3.0,3,0,Food;Bakeries;Custom Cakes;Specialty Food;Macarons,,
p7Qr6iOD6BOtDrbADLD3qg,Aventura Apartments,Null,10350 W McDowell Rd,Avondale,AZ,85392,33.4653789,-112.2853129,1.5,12,1,Real Estate;Apartments;Home Services,,
2NRFzc5o-LyKiOrGyrFrcA,BodyTech Fitness,Streetsville,"10 Falconer Drive, Unit 8",Mississauga,ON,L5N 2P7,43.5926875,-79.7261085,4.5,3,1,Gyms;Fitness & Instruction;Active Life,,
4IrgxIjeZ5tHywwB5GJG7g,CTL Plumbing,Null,18213 E Warner Rd,Gilbert,AZ,85296,33.336081,-111.6890506,5.0,3,0,Contractors;Plumbing;Home Services;Water Heater Installation/Repair,,
xu3JbicQsPv1lay0cT6tRw,Cleveland Tiffin- Punjabi Dhaba,Null,4630 Warrensville Center Rd,North Randall,OH,44128,41.434184,-81.5368065,4.5,81,1,Restaurants;Ethnic Food;Indian;Food;Specialty Food,casual,quiet
FXqr19taSFe0oKBUleYyZQ,TCBY Yogurt,Null,"10625 N Tatum Blvd, Ste 101",Phoenix,AZ,85028,33.5834251,-111.9768837,4.0,4,0,Ice Cream & Frozen Yogurt;Food,,
Kb3ckrwMYyTkNKfJhxp_Jg,Comfort Inn Fountain Hills - Scottsdale,Null,17105 E Shea Blvd,Fountain Hills,AZ,85268,33.572062,-111.713851,3.0,17,1,Hotels;Hotels & Travel;Event Planning & Services,,
YidWQ-CipHgGpA8jygsPpQ,PetSmart,Spring Valley,7050 Arroyo Crossing Pkwy,Las Vegas,NV,89113,36.064755,-115.24531999999999,3.0,73,1,Pet Stores;Pet Groomers;Pets;Pet Training;Pet Services,,
mreVfNDmhkQBPbWZ6vtr9w,The Egg I Am,Null,"10155 E Via Linda, Ste H131",Scottsdale,AZ,85258,33.57463189999999,-111.86110420000001,4.5,29,0,American (Traditional);Restaurants;Cafes;Breakfast & Brunch,casual,average
GnSzqLGOUqX7Zj4b9qK0vg,Hattie's Doggie Day Care & Boarding,Null,"7996 Darrow Rd, Ste 40",Twinsburg,OH,44087,41.2833517686,-81.4412176196,4.0,4,1,Pet Services;Community Service/Non-Profit;Pet Groomers;Pet Sitting;Pets;Hotels & Travel;Local Services,,
1bTOpJMpwTx_TIKVkMNkIA,Infinite Wellness Of Fort Mill,Null,"1698 Hwy 160 W, Ste 200",Fort Mill,SC,29708,35.03325039999999,-80.96788199999999,4.5,4,1,Massage;Health & Medical;Doctors;Medical Spas;Sports Medicine;Physical Therapy;Massage Therapy;Chiropractors;Beauty & Spas;Internal Medicine,,
dBmhVzIS6l893AT8VQWoIw,KSHP Radio,Westside,2400 S Jones Blvd,Las Vegas,NV,89146,36.145419700000005,-115.2244798,3.5,6,1,Radio Stations;Mass Media,,
8m6aYLXljejthCeBfrpuOA,LA Fitness,Null,1844 W Rio Salado Pkwy,Mesa,AZ,85201,33.4301389676,-111.871210671,3.0,38,1,Active Life;Fitness & Instruction;Trainers;Yoga;Gyms;Sports Clubs,,
BVA_JHTLOKdaSaqZPoKCvg,South End Pet Sitting,South End,,Charlotte,NC,28203,35.2146586,-80.8599193,4.5,7,1,Dog Walkers;Pet Services;Pets;Pet Sitting,,
VoHTd4QkPGWXl6IGI72isQ,Guru Palace,Null,2048 E Baseline Rd,Mesa,AZ,85204,33.3813133,-111.78732099999999,3.5,191,1,Pakistani;Buffets;Restaurants;Indian,casual,quiet
OQSHcpZcVDMZztwD6Ngt7Q,Superior Mobile Home,Null,,Mesa,AZ,85201,33.4329528,-111.84493459999999,4.0,4,1,Local Services,,
xZuAhA6hQ2wU1CX01Iknug,The Frozen Frog,Spring Valley,"5130 S Fort Apache Rd, Ste 205",Las Vegas,NV,89117,36.09582,-115.29653300000001,4.5,105,1,Street Vendors;Shaved Ice;Food;Desserts,,
F6hyly5RoBFpOwiClO0o_g,UP Cinematics,Summerlin,,Las Vegas,NV,89128,36.1988542,-115.2659777,5.0,6,1,Videographers;Event Planning & Services;Professional Services;Video/Film Production,,
rdRFKQr-svTpG-KxVq2ZAw,Polka Dot Cow Cafe,Null,"4550 Ebenezer Road, Unit 14",Brampton,ON,L6P 2R2,43.7733396,-79.6630297,3.5,10,0,Restaurants;Cafes,casual,quiet
i2YFMkIMqstA9GxUkcigYw,Senor Taco,Null,"16948 E Shea Blvd, Ste 105",Fountain Hills,AZ,85268,33.5739313,-111.7140561,4.0,115,1,Mexican;Fast Food;Restaurants,casual,average
P8khqN3qyDRe8wivp7GX_g,Tuscany Theatre,Null,"861 N Higley Rd, Ste 105",Gilbert,AZ,85234,33.365837404299995,-111.720026359,5.0,8,1,Arts & Entertainment;Performing Arts,,
sjXzaEF28BWywExGi_cuWg,Moore Healing,Null,"11225 N 28th Dr, Ste A101",Phoenix,AZ,85029,33.5893036,-112.11976829999999,5.0,4,1,Beauty & Spas;Massage,,
mjDo6APNdY_KHLYbS1BeHg,Chocolats Favoris,Null,"15955 Bayview Avenue, Suite 1",Aurora,ON,L4G 0S3,44.023377798,-79.4472208291,4.0,76,1,Chocolatiers & Shops;Desserts;Food;Specialty Food,,
ErwCGMACNdWc0VS0iZv_Jw,Laura Lee Salon,Null,1797 Coventry Rd,Cleveland Heights,OH,44118,41.5106831,-81.5797297,4.0,16,0,Barbers;Hair Salons;Beauty & Spas;Nail Salons,,
8L_ltRdrPaIZJX98xCjlXg,St. Louis Bar & Grill,Null,10 Broadleaf Ave,Whitby,ON,L1R 0B5,43.918899100000004,-78.9584103,3.5,5,1,Chicken Wings;Bars;Sports Bars;American (Traditional);Restaurants;Nightlife,casual,average
Tfb0k0UCxMhOe-YvspX3Pg,Woodbine Beach,Leslieville,Lake Shore Boulevard,Toronto,ON,Null,43.6606181,-79.32208370000001,4.0,13,1,Beaches;Active Life,,
Au17h7329bF1JV3teRK2IQ,Cactus Comics,Null,2655 Windmill Pkwy,Henderson,NV,89074,36.0422967,-115.10448000000001,4.0,10,1,Books;Mags;Music & Video;Comic Books;Shopping;Arts & Entertainment,,
kX0br64oB3_o4TY1F5NXkQ,Cashmere Cricket,Null,2235 Front St,Cuyahoga Falls,OH,44221,41.1371161,-81.48270079999999,4.0,27,1,Nightlife;American (New);Bars;Restaurants,casual,average
bT8rUptbdDGVwdTIMYz8Ow,TGI Friday's,Null,11025 N Black Canyon Hwy,Phoenix,AZ,85073,33.586890999999994,-112.11578,1.0,3,0,American (New);Restaurants;American (Traditional),,
2YmIbx2Onfwsb6izA71Uzw,CrushBrew Craft Beverage Festival,Null,7134 E Stetson Dr,Scottsdale,AZ,85251,33.499449199999994,-111.9278649,4.0,7,1,Arts & Entertainment;Festivals;Local Flavor,,
QbbpMJiSU4M5g3x-q-lLuQ,Blumenthal Performing Arts,First Ward,130 N Tryon St,Charlotte,NC,28202,35.2267961,-80.84223320000001,4.0,28,1,Performing Arts;Arts & Entertainment,,
lHG_CQdUR0xQnrivvYqssA,Closets by Design,Steele Creek,"1200 Westinghouse Blvd, Ste E",Charlotte,NC,28273,35.1197758,-80.9313925,2.5,3,1,Home Organization;Interior Design;Home Services;Cabinetry,,
5WaXQjXal1bbVneDDI-4qg,Ding Hao Szechuan Cuisine,Null,360 Dundas Street E,Oakville,ON,L6H 6Z9,43.4872899,-79.7166186,4.5,6,0,Restaurants;Chinese,,average
0TnzU1ORGITxCbBOMSGjMg,Agua Fria Animal Hospital,Null,13330 W Van Buren St,Goodyear,AZ,85338,33.450309999999995,-112.345873,4.0,12,1,Pets;Veterinarians;Pet Services;Emergency Pet Hospital,,
J255D4FdBCZYEhFr3z8_kA,Angus Pho House,Brown's Corners,"3299 York Regional Road 7, Unit E3",Markham,ON,L3R 3P3,43.848192,-79.349857,3.5,20,1,Vietnamese;Soup;Noodles;Restaurants,casual,average
CKrUu_6XnRMNsjTPAd1_1g,Craggy Bogland's,Null,4857 Robinhood Dr,Willoughby,OH,44094,41.626763000000004,-81.4270193,4.0,20,1,Nightlife;Bars;Pubs;Irish;Restaurants,casual,average
F5f3XdqHyd1X41DCV1YcMw,west elm,Null,"15279 N Scottsdale Rd, Ste 125, Scottsdale Quarter",Scottsdale,AZ,85254,33.624911499999996,-111.9254982,2.5,39,1,Home Decor;Shopping;Furniture Stores;Home & Garden,,
YHYdrB1b9z-YbmBO8lmw2g,Millennium Day Spa & Salon,Null,7609 E Pinnacle Peak Rd,Scottsdale,AZ,85255,33.6974971,-111.9156753,4.5,39,1,Hair Salons;Day Spas;Nail Salons;Beauty & Spas,,
nMQb4vbt7ByRss81trEwug,Isabel's Cleaning Services,Null,,Phoenix,AZ,85018,33.4962205,-111.96417279999999,5.0,8,1,Professional Services;Office Cleaning;Home Cleaning;Home Services,,
b-K4_5JPbgQysoqQtJGe8Q,Discount Drug Mart,Null,15412 Detroit Ave,Lakewood,OH,44107,41.485358899999994,-81.80394,3.5,7,1,Shopping;Food;Cosmetics & Beauty Supply;Beauty & Spas;Drugstores;Grocery,,
_VIIuz9CAt68Hb54hQmpXA,Ada's Fish Fry,Null,"14960 W Indian School Rd, Ste 380",Goodyear,AZ,85395,33.492340000000006,-112.38023000000001,4.5,213,1,American (New);Sandwiches;Seafood;Restaurants;Fish & Chips,casual,quiet
ALpbR1Wea-ai7uf2LttHVw,"Discount Tire Store - Scottsdale, AZ",Null,"8799 E Frank Lloyd Wright Blvd, Ste 2",Scottsdale,AZ,85260,33.6285526,-111.8917298,4.5,52,1,Wheel & Rim Repair;Automotive;Tires;Auto Parts & Supplies,,
pRZB5UNlBpOOaC0AEqhI5A,Robinson Animal Hospital,Null,5663 Steubenville Pike,McKees Rocks,PA,15136,40.451468,-80.132465,4.0,12,1,Pets;Veterinarians,,
BFz9R_pXiohU8EPBeJEK3w,Hall Brothers Meats,Null,27040 Cook Rd,Olmsted Falls,OH,44138,41.3837609,-81.9389948,3.5,3,1,Specialty Food;Meat Shops;Food;Seafood Markets,,
pWqtTbQsXMBevsKbyNgPcQ,Dickey's Barbecue Pit,Null,2470 Happy Valley Rd,Phoenix,AZ,85085,33.7150071,-112.11297330000001,2.5,28,0,Event Planning & Services;Restaurants;Caterers;Barbeque,casual,average
k0iSRXXqw49yugl8UUpbsw,Foodie Fit,Southeast,"2185 E. Windmill Lane, Ste 100",Las Vegas,NV,89123,36.0415682,-115.1215253,4.5,73,1,Specialty Food;Food Delivery Services;Health Markets;Event Planning & Services;Food;American (Traditional);Do-It-Yourself Food;Restaurants;Personal Chefs,,
TIXrRpm3g5oF7TKd_NkeAA,Cuevas Meat Market,Null,530 Boulder Hwy,Henderson,NV,89015,36.0327817,-114.97246000000001,4.0,48,1,Meat Shops;Food;Butcher;Specialty Food,casual,average
_lFZ890CUR1yC4EhmCVZtw,Pacific Seafood,Null,1647 W Warm Springs Rd,Henderson,NV,89014,36.0561254,-115.0552851,4.5,11,0,Food;Seafood Markets;Specialty Food,,
BvJD3TvjGFVuJMuZ5D6FUA,Crazy Mocha Coffee,Friendship,5607 Baum Blvd,Pittsburgh,PA,15232,40.4579855,-79.9352334,3.5,21,1,Cafes;Restaurants;Coffee & Tea;Food,casual,quiet
38OrCpBBQG-dzhxfXrFQWQ,Zack's Hamburgers,Null,4009 South Blvd,Charlotte,NC,28209,35.1882386,-80.8749427,4.5,140,1,Restaurants;Burgers,casual,average
zYq3TuXTUmbsWeBCY3ckxA,"Richard C Martin, MD",Null,5620 E Bell Rd,Scottsdale,AZ,85254,33.640810200000004,-111.95927809999999,2.5,6,1,Health & Medical;Sports Medicine;Orthopedists;Doctors,,
qvpHzc0sDFtTFgTGyGLOAg,Massage Envy - Scottsdale 101,Null,7000 E Mayo Blvd,Scottsdale,AZ,85054,33.657222999999995,-111.926751,3.0,39,1,Health & Medical;Day Spas;Skin Care;Massage Therapy;Beauty & Spas;Massage,,
WqzT6XTdSlt9IzNzyEcO4A,Napa Auto Care Center,Null,875 N Mcqueen Dr,Gilbert,AZ,85233,33.365415899999995,-111.82378159999999,3.5,19,1,Auto Repair;Automotive,,
mH60zkErdf5SqEoLQTJT7g,Charleston Car Wash,Downtown,1961 E Charleston Blvd,Las Vegas,NV,89104,36.1592726,-115.1220305,3.0,12,1,Car Wash;Automotive,,
HWmcWDuRvLPNr3WCUIbP4w,Mirror Mirror Salon Studio,South End,2133 Southend Dr,Charlotte,NC,28203,35.207159000000004,-80.860039,5.0,3,1,Hair Stylists;Beauty & Spas;Hair Salons,,
_OHueDLGKKhKcclI6tyRAA,Yellow Rose At Touchstone,Null,9217 Baybrook Ln,Charlotte,NC,28277,35.079684,-80.828743,4.0,36,0,Sports Bars;Nightlife;Bars,,loud
ItUY4t6lDvSJEKAA9kEwAw,Comfort Experts,Null,"3317 S Higley Rd, Ste 114-225",Gilbert,AZ,85297,33.290376,-111.72031340000001,5.0,5,1,Heating & Air Conditioning/HVAC;Home Services,,
XuNcZFG3zzchWfwP_T1YJw,Market Street Buffet & Bakery,Null,2525 S York Rd,Gastonia,NC,28052,35.2308929,-81.19671020000001,3.0,7,1,Restaurants;Bakeries;Food;Buffets,casual,
VKYV6SV3qDmr0Pg0V5MP7g,Dinetz Restaurant Equipment Limited,Null,844 Caledonia Road,Toronto,ON,M6B 3Y1,43.702457,-79.46471640000001,2.0,3,1,Wholesale Stores;Shopping,,
0j3OaO0ZDfpAuU6CDpXeBQ,Wells Fargo Bank,Steele Creek,12802 S Tryon St,Charlotte,NC,28273,35.104473999999996,-80.98660500000001,3.5,3,1,Financial Services;Banks & Credit Unions,,
8zwSiNICGH8ECwy-LbKy5Q,Bashas',Null,99 S Higley Rd,Gilbert,AZ,85296,33.3486840329,-111.719537051,4.0,12,1,Grocery;Food,,
1mvgqQhd5OSCzHkOomdjyw,Dhi Mortgage,Null,"1626 N Litchfield Rd, Ste 170",Goodyear,AZ,85395,33.4651764,-112.36119120000001,2.5,3,1,Na,,
hAzKMMBx7r7cxLs0Vka_dw,Choice Pet Market,Null,"7119 E Shea Blvd, Ste 113",Scottsdale,AZ,85254,33.581154,-111.927268,3.5,20,1,Food;Pet Stores;Specialty Food;Pet Adoption;Pets,,
ij7p-hbzxWCPTCj9HA8iwA,Boba City Cafe,Null,4126 S Rainbow Blvd,Las Vegas,NV,89103,36.113229,-115.24165,4.0,91,0,Sandwiches;Bubble Tea;Food;Juice Bars & Smoothies;Coffee & Tea;Restaurants,casual,quiet
Z15a7_8FQ82_baSJiqMoIw,Wild Wing Cafe,University City,9539 Pinnacle Dr,Charlotte,NC,28262,35.328916299999996,-80.73859209999999,2.5,63,1,Bars;Sports Bars;American (Traditional);Chicken Wings;Nightlife;Restaurants;Sandwiches;Burgers,casual,loud
m1CuUKcG3pVNEi_dZd0Obg,My Pigsty Furniture,Null,"60 W Baseline Rd, Ste 104",Mesa,AZ,85210,33.379674,-111.83343899999998,1.5,7,0,Home & Garden;Shopping;Furniture Stores,,
vKXOGRgZax4t18afHSVQZg,Canadian Academy of Defensive Driving,Milliken,"5005 Steeles Avenue E, Suite 208",Toronto,ON,M1V,43.828043,-79.2875191,1.0,3,1,Education;Specialty Schools;Driving Schools,,
laB8nX4KCu6xHl0fJ21MfQ,Casa Tierra Apts,Null,3815 N 16th Street Ofc,Phoenix,AZ,85016,33.491591,-112.046539,1.0,3,1,Real Estate;Home Services;Apartments,,
RnFuYxZSZzuAJSSEBFj7Mw,KFC,Scarborough,5109 Sheppard Avenue E,Scarborough,ON,M1S 4N8,43.793707,-79.239499,2.5,3,1,Fast Food;Chicken Wings;Restaurants,casual,quiet
Q39lkuSwfg-7CblOixLQDA,Michael E Minden Diamond Jewelers,The Strip,"3200 S Las Vegas Blvd, Ste 600",Las Vegas,NV,89109,36.128213,-115.17299799999999,4.0,51,1,Local Services;Bridal;Jewelry;Watch Repair;Shopping;Gold Buyers;Jewelry Repair,,
0SluIEUhvhABDvRurC-Q6A,Superior Moulding of Nevada,Null,5190 W Patrick Ln,Las Vegas,NV,89118,36.0793869,-115.211716,4.5,8,1,Building Supplies;Home Services;Home & Garden;Interior Design;Door Sales/Installation;Flooring;Shopping;Contractors;Kitchen & Bath;Arts & Crafts;Hardware Stores,,
VzABkzCMU7i1ymN6KuwmXQ,Slaughter & Associates,Null,"7130 W Chandler Blvd, Ste 17",Chandler,AZ,85226,33.305363,-111.96581259999999,5.0,51,1,Automotive;Auto Repair,,
t8V_P7ZzRrhDQoqeoGVahQ,The Cellar At Duckworth's,First Ward,330 N Tryon St,Charlotte,NC,28202,35.228984999999994,-80.839671,4.5,300,1,Lounges;Gastropubs;Bars;Tapas Bars;Nightlife;American (New);Restaurants;Tapas/Small Plates;Cocktail Bars,casual,average
O7pjvI53_gqub0Eq9jC5VQ,D'Bella Salon,Null,"8700 E Pinnacle Peak Rd, Ste 102",Scottsdale,AZ,85255,33.699168,-111.892549,5.0,3,1,Beauty & Spas;Hair Salons;Shopping;Nail Salons;Cosmetics & Beauty Supply,,
1Q85RYcLucrMJfZDqeTt3A,Zara,Yorkville,50 Bloor St W,Toronto,ON,M4W 3L8,43.670321,-79.388274,2.0,33,1,Women's Clothing;Shopping;Men's Clothing;Accessories;Fashion,,
VVKDTYqQX5Fftk5LZ9qgrQ,Brunswick Zone XL Gilbert,Null,1160 S Gilbert Rd,Gilbert,AZ,85296,33.328685,-111.79225919999999,3.0,124,0,Active Life;Laser Tag;Event Planning & Services;Bowling;Venues & Event Spaces,,
LW2ZVNroU4ciwX5c-PQmtg,Allstate Hairstyling & Barber College,Ohio City,2546 Lorain Ave,Cleveland,OH,44113,41.4839961,-81.70437109999999,4.5,5,1,Adult Education;Hair Stylists;Beauty & Spas;Education;Barbers;Vocational & Technical School;Hair Salons;Specialty Schools;Cosmetology Schools,,
jeJmgdVaUINhS48CrbpR2w,Joe's Lakewood Computer,Null,14035 Madison Ave,Lakewood,OH,44107,41.476786,-81.790982,4.5,10,1,Local Services;Shopping;Computers;IT Services & Computer Repair,,
NKSdJpmnbbANDRx5inqkvA,Toys R Us,Null,11300 Carolina Place Pkwy,Pineville,NC,28134,35.079573499999995,-80.88006440000001,2.5,23,1,Video Game Stores;Music & DVDs;Toy Stores;Shopping;Books;Mags;Music & Video,,
vO-SfK34VAzODekMcNQm6w,Bombard Renewable Energy,Spring Valley,,Las Vegas,NV,89118,36.080966700000005,-115.22448529999998,3.0,6,1,Home Services;Solar Installation;Heating & Air Conditioning/HVAC;Electricians;Professional Services,,
SraKnmtUWE4PCLgsYliN6g,Gallery Andrea,Null,7019 E Main St,Scottsdale,AZ,85251,33.4928831,-111.92965330000001,5.0,5,1,Shopping;Arts & Entertainment;Art Galleries,,
nz8uRlnveku1C3t-Lripkw,E-String pizzeria & poker bar,Null,2031 W Sunset Rd,Henderson,NV,89014,36.0693057,-115.0698807,3.5,92,1,Restaurants;Beer;Wine & Spirits;Food;Nightlife;American (Traditional);Pizza;Bars;Pubs;Karaoke,casual,average
NQ7d9DIzP4Uip8yP9hgwPA,Local Brewhouse,North Side,140 Federal St,Pittsburgh,PA,15212,40.448156958,-80.00410906970001,2.5,62,1,Chicken Wings;American (Traditional);Sports Bars;Restaurants;Nightlife;Bars,casual,average
G3DiBiEirNbyZX6a7Sib1A,Barf's Small Engine Repair,Null,29 Gay Rd,Munroe Falls,OH,44262,41.138709000000006,-81.43741700000001,5.0,3,1,Local Services,,
vjfBgc83dCMlFMMmMxn-tQ,Hamburger City,Null,2362 Lexington St,Las Vegas,NV,89106,36.2023607,-115.15828059999998,5.0,11,0,Burgers;Restaurants,casual,average
NlpsCKu8FiGo2BvZSZdpFg,Subway,Westside,740 S Decatur Blvd,Las Vegas,NV,89107,36.163431200000005,-115.2072287,1.5,3,1,Fast Food;Restaurants;Sandwiches,,
xtrPQbDMCgT0hXe6esiVJQ,Sully's Boxing Club,Dovercourt,1024 Dupont St,Toronto,ON,M6H 1Z6,43.6696655,-79.4343911,3.0,6,1,Active Life;Gyms;Fitness & Instruction;Amateur Sports Teams,,
oyGZ_uixszLQSi5qj-xfiw,Ashley HomeStore,Westside,9200 W Sahara Ave,Las Vegas,NV,89117,36.144505,-115.296847,3.5,110,1,Furniture Stores;Home & Garden;Home Decor;Shopping;Mattresses,,
haeV2BbeJNCcBlRwgJIsQg,Keyser Dog Park,Null,550 Keyser Pkwy,Cuyahoga Falls,OH,44223,41.1675266,-81.530188,4.5,3,1,Pets,,
pYYVZ0Unh6x7QCCWDs9UcQ,Extra Space Storage,Null,3308 South Blvd,Charlotte,NC,28209,35.1959297,-80.8726582,4.5,8,1,Local Services;Movers;Home Services;Self Storage,,
GYkUIOxKs3sEJhkojc7arw,The Coop,Summerlin,"1925 Village Center Cir, Ste 150",Las Vegas,NV,89134,36.192487799999995,-115.30356189999999,5.0,5,1,Event Planning & Services;Home Services;Shared Office Spaces;Real Estate;Venues & Event Spaces,,
r6Mou-9qFKMXMMQRxIPx1Q,Pizzeria Moretti,Sud-Ouest,1059 Rue Wellington,Montréal,QC,H3C 2V6,45.4935982,-73.55748759999999,3.5,15,1,Pizza;Italian;Restaurants,casual,loud
VJJveoWmlHroqnRR18K7sA,Le Ti Colibri,Kensington Market,291 Augusta Avenue,Toronto,ON,M5T 1N9,43.6563207,-79.40256219999999,4.0,24,0,Caribbean;Canadian (New);Restaurants,casual,average
qrmnvPj32puYUVnuC6HqMA,Floris,Null,1670 Avenue Road,Toronto,ON,M5M 3Y1,43.726814399999995,-79.4176212,3.5,3,1,Florists;Shopping;Flowers & Gifts,,
ns9GB4Aev-SNAyo4tMXW1g,Il Fornello,Null,203 N Service Road W,Oakville,ON,L6M 3R2,43.4509755255,-79.70222021,3.5,18,1,Caterers;Italian;Event Planning & Services;Restaurants,casual,average
frhDuA4u-GtAWGFrTP6VNA,Zellers,Leslieville,1000 Gerrard Street E,Toronto,ON,M4M 3G6,43.6687463,-79.3388134,3.0,5,0,Shopping;Fashion;Department Stores,,
LhBP1BxWBM3aLLRR4zgQlw,Oregano's Pizza Bistro,Null,328 N Gilbert Rd,Gilbert,AZ,85234,33.355969,-111.7900143,4.0,360,1,Italian;Restaurants;Pizza,casual,average
V1_x9Mkf777k3RsCrtIq3w,Scarborotown Chrysler,Scarborough,4960 Sheppard Avenue E,Scarborough,ON,M1S 4A7,43.792517700000005,-79.2452177,3.5,3,1,Car Dealers;Automotive;Auto Repair,,
-8oefCbONloutvAy9uTa-A,"Malik Edward J, OD",Westside,2261 S Rainbow Blvd,Las Vegas,NV,89146,36.1462779,-115.24344099999999,5.0,3,1,Shopping;Optometrists;Health & Medical;Eyewear & Opticians,,
dulgBrNtDCGjYcbQa2E6uA,Michael's on Simcoe,Entertainment District,100 Simcoe Street,Toronto,ON,M5H 3T4,43.648091799999996,-79.38636269999999,3.5,88,1,Restaurants;Seafood;Steakhouses;Italian,dressy,average
RxYfqZ3lUGvimBmZCjhDBw,Choi Tailoring,Null,"1840 W Chandler Blvd, Ste D9",Chandler,AZ,85224,33.3075544338,-111.87297228700001,3.0,14,1,Local Services;Sewing & Alterations,,
3y9QKmbU5BnIInw4yYhn9g,Hook Up Muay Thai Boxing,Null,"288 Bridgeland Ave, Unit 2",Toronto,ON,M6A 1Z4,43.7243326,-79.47061109999999,5.0,6,1,Active Life;Muay Thai;Martial Arts;Fitness & Instruction;Boxing,,
bj_s5dESqgvQYROIGql-pA,American Furniture Galleries,Null,1980 N Alma School Rd,Chandler,AZ,85224,33.3331359,-111.86050619999999,2.0,14,1,Furniture Stores;Shopping;Home & Garden,,
-9j_qW9w64v_Nxa6dLeeOA,Lanterna Restaurant,Null,33 Queen Street,Scarborough,NYK,YO11 1HQ,54.28449620000001,-0.39916840000000003,5.0,3,1,Restaurants;Italian,dressy,
p81LV6y6Jxz_q_3HL06jOw,RA Sushi Bar Restaurant,Null,"13802 N Scottsdale Rd, Ste 176",Scottsdale,AZ,85254,33.614571271799996,-111.926198072,3.5,300,1,Sushi Bars;Japanese;Restaurants,casual,average
F9lHVxVK41oyEETmzp1MUA,Ashley Filio,Null,"859 W Guadalupe Rd, Ste 102, Hair Ink Salon1",Mesa,AZ,85202,33.3642308,-111.85279229999999,4.5,19,1,Beauty & Spas;Hair Salons;Makeup Artists;Hair Stylists;Massage,,
IcaujSeVjsVr9H4SADhmfg,Smoke's Poutinerie Liberty Village,Liberty Village,116 Atlantic Avenue,Toronto,ON,M6K 1X9,43.6395114,-79.4213178,3.5,19,1,Comfort Food;Poutineries;Canadian (New);Restaurants,casual,average
8jWuRoHUFCXPdGVIYHTg5g,Great Wall Buffet Two Corporation,Null,8101 N 35th Ave,Phoenix,AZ,85051,33.5549658,-112.1342358,2.5,11,0,Chinese;Restaurants,casual,quiet
JDXUW8KJWGkBl79EIHlqGg,Zmodo Technology,Null,"1401 Interstate Dr, Ste B",Champaign,IL,61822,40.148066,-88.269834,1.5,3,1,Electronics;Shopping;Security Systems;Home Services,,
784JDSIDH9YxcOe-B7VRTQ,Physiotherapy Associates,Null,9917 N 95th St,Scottsdale,AZ,85258,33.577067299999996,-111.87446740000001,3.5,9,1,Health & Medical;Physical Therapy,,
rB4HYopnht0Z4IVRmLGvBQ,Associated Physicians,Null,4410 Regent St,Madison,WI,53705,43.0686393,-89.45199709999999,4.0,9,1,Obstetricians & Gynecologists;Doctors;Health & Medical;Internal Medicine;Pediatricians,,
nTzNKKBWl_6B_yGshTvaHg,Naked Pool,Null,1501 W Sahara Ave,Las Vegas,NV,89109,36.143437,-115.16909799999999,4.0,14,1,Swimming Pools;Active Life,,
kDhP6eL32UbRj5r9XZW6EA,Integrity Flooring,Null,3600 Highway 49 S,Harrisburg,NC,28075,35.32712,-80.636246,1.5,3,1,Flooring;Home Services,,
aHr_iwjtmqTHi2krox8Qgw,Double Y Ranch,Southeast,8025 Bermuda Rd,Las Vegas,NV,89123,36.04367,-115.155029,5.0,4,1,Pets;Horse Boarding,,
DIK6moKwvpaSMUIrxpOq8A,Steerburger Tous les Jours,Plateau-Mont-Royal,1689 Avenue du Mont-Royal E,Montréal,QC,H2J 1Z6,45.532826799999995,-73.5749468,4.5,55,0,Breakfast & Brunch;Restaurants;Burgers,casual,average
DzvNrAo1DJcqA_vZT6cF_g,Pizza Marsala,Null,10729 State Rt 30,Irwin,PA,15642,40.3279419,-79.7214672,4.0,9,1,Italian;Restaurants;Pizza,casual,
tCW6uSKpuWw3rQLg0C9QcA,Pickwick Coffee Roasting,Null,"308 E Green St, Ste 1",Champaign,IL,61820,40.1105359,-88.2342809,5.0,5,0,Bakeries;Coffee Roasteries;Coffee & Tea;Food,,
7vxm0G4g857HzRqqpeu6bw,Lowe's Home Improvement Warehouse,Null,370 Kennedy Rd S,Brampton,ON,L6W 4V2,43.678409,-79.72356500000001,4.5,7,1,Shopping;Home Services;Home & Garden;Building Supplies;Hardware Stores,,
f_zWBSu0TWP-5RdWMHdlaw,Shine Blow Dry Bar,Null,"4225 N Marshall Way, Ste 3",Scottsdale,AZ,85251,33.497345,-111.928528,4.5,18,0,Hair Extensions;Hair Stylists;Professional Services;Hair Salons;Blow Dry/Out Services;Beauty & Spas,,
Y9_kmPo1kpvTaGow7ds92g,Gabriel's Cafe,Null,15218 Yonge Street,Aurora,ON,L4G 1L9,43.9989334,-79.46754229999999,4.5,4,1,Cafes;Restaurants,,
qm9BQeu-Nd17uUOcCZjyng,Toronto Public Library - Scarborough Civic Centre Branch,Scarborough,156 Borough Drive,Toronto,ON,M1P,43.772133600000004,-79.256592,3.5,7,1,Public Services & Government;Libraries,,
PAfgC5DWkOpNn8E__mSJyw,Bixels Salon and Spa Studio,Null,6101 Heisley Rd,Mentor,OH,44060,41.7048162,-81.30663609999999,4.0,17,1,Massage;Hair Salons;Hair Removal;Beauty & Spas,,
ybzhrae2skLVj4FrwPHs7A,Harris Teeter,Null,5920 Weddington-Monroe Rd,Wesley Chapel,NC,28104,35.000007165,-80.69965721140001,3.5,6,1,Flowers & Gifts;Grocery;Shopping;Food;Drugstores,,
EXTC1NVaJXRR6wnipgv9vA,Frank Malfara Service Station,Null,165 Rogers Road,York,ON,M6E 1P8,43.6850217,-79.4480709,3.0,7,1,Auto Repair;Automotive,,
Upu5qXVsgGiDykvsk5azgg,Gap,Null,"1000 Ross Park Mall Dr, Ste E08B",Ross,PA,15237,40.538969099999996,-80.0077114,4.5,3,1,Fashion;Shopping;Men's Clothing;Department Stores;Women's Clothing;Children's Clothing,,
Iv_F5QC765k3W1DS_ghJng,Sol Glow,Westside,,Las Vegas,NV,89146,36.135635,-115.2304131,5.0,3,1,Tanning;Beauty & Spas;Spray Tanning,,
p_IkZJ7HoA2JjbJDu4hCvw,Carl's Men's Hairstyling,Null,33701 Aurora Rd,Solon,OH,44139,41.385421,-81.439076,4.0,12,1,Beauty & Spas;Barbers,,
SvBli2-o2UtoW4hdrAQ7Pw,Arnold's Fence,Sunrise,2521 N Gateway Rd,Las Vegas,NV,89115,36.2054013,-115.0873223,1.0,3,1,Fences & Gates;Home Services,,
rGgmiMs76GF84vXUKacsOQ,Flair Gifts & Boutique,Null,29455 N Cave Creek Rd,Cave Creek,AZ,85331,33.7515256,-111.9912875,4.5,9,1,Gift Shops;Women's Clothing;Shopping;Flowers & Gifts;Accessories;Fashion,,
i4l_Qr_zIz6PgyDktkf5dA,Hickory Tavern,Null,"9526 Birkdale Crossing Dr, Ste 30",Huntersville,NC,28078,35.4435563,-80.88557890000001,3.0,58,1,Bars;American (Traditional);Nightlife;Chicken Wings;Restaurants;Sports Bars;American (New),casual,loud
RR3-BbM6P6CF3PpNvPsP7A,Arizona Bubble Soccer,Null,1750 E Thatcher Blvd,Chandler,AZ,85226,33.310201,-111.81068400000001,5.0,11,1,Event Planning & Services;Amateur Sports Teams;Party Equipment Rentals;Active Life;Bubble Soccer;Soccer;Party & Event Planning,,
w-BFOwYmhQfp1ItoNM4ogw,Hair by Christine,Null,"1825 E Guadalupe Rd, Ste 105, Salon Lulu",Tempe,AZ,85283,33.361336699999995,-111.9103993,5.0,7,1,Eyelash Service;Hair Salons;Hair Stylists;Beauty & Spas;Blow Dry/Out Services,,
rT7TTeYUtsDAeYQAZYvn6w,Emerson Joseph,Null,"221 S Tryon St, Ste 100",Charlotte,NC,28202,35.2288172364,-80.84523,4.0,41,1,Day Spas;Massage;Beauty & Spas;Barbers,,
H4AvltDM9QY8Up8z-ybUyQ,Karaikudi Palace,Null,"8752 E Shea Blvd, Ste C-11",Scottsdale,AZ,85260,33.582485999999996,-111.8923957,3.5,120,0,Restaurants;Indian;Buffets,casual,average
5m92CfkACMYTXJm9omQTeA,Hotel Mortagne,Null,1228 Nobel Street,Boucherville,QC,J4B 5H1,45.5688688,-73.44225329999999,3.5,5,1,Hotels & Travel;Massage;Hotels;Day Spas;Beauty & Spas;Restaurants;Venues & Event Spaces;Event Planning & Services,,
dPo3kPULZNczWlqLMmCbsA,Locksmith Las Vegas,Southeast,"8255 S Las Vegas Blvd, Ste 313",Las Vegas,NV,89123,36.039896399999996,-115.1758223,4.0,5,1,Keys & Locksmiths;Home Services,,
xWGFORqyVvAAuD8jQ4tXug,Longfellow Lofts,Greenbush,1015 Mound St,Madison,WI,53715,43.065308,-89.4026982,3.0,4,1,Home Services;Real Estate;Apartments,,
11Pq9Lb1idRchDgPnSwoLQ,Rusk Lock & Key,Null,"16772 W Bell Rd, Ste 110-300",Surprise,AZ,85374,33.640215600000005,-112.4206947,4.5,6,1,Home Services;Keys & Locksmiths,,
gJJ7Ve-MYw1Qxka9loOozA,Two Gringos Tires,Null,746 W Southern Ave,Mesa,AZ,85210,33.3937423,-111.8477193,4.5,54,1,Tires;Automotive,,
123cbSJgE-BzNCzXV_7r0g,North Coast Cafe,Fairfax,9801 Carnegie Ave,Cleveland,OH,44106,41.5016109,-81.6192442,3.5,16,1,American (New);Restaurants;Buffets,casual,quiet
dIuaw4-LRlJ8sGhK8PszPA,Vi Esthetica,Null,"6007 E Baseline Rd, Ste 101",Gilbert,AZ,85234,33.3777378571,-111.70349090299999,5.0,5,1,Health & Medical;Hair Removal;Skin Care;Medical Spas;Beauty & Spas;Laser Hair Removal,,
KbVJ0FC1l61GVSniCNhP1g,Vet-REC:  Veterinary Rehabilitation and Exercise Clinic,Null,300 Unionville-Indian Trl Rd,Indian Trail,NC,28079,35.0758404287,-80.6601398438,5.0,3,1,Pets;Veterinarians,,
DVBeUawvIpgdR4auCo1-3A,La Maison Du Jazz,Laval,1639 Boulevard De L'avenir,Laval,QC,H7S 2N5,45.5660628,-73.72630720000001,3.0,8,1,American (Traditional);Restaurants;Nightlife;Jazz & Blues;Arts & Entertainment,dressy,average
Z4SaIMldUQ2z991Vw5Tu4A,Lacasa Inn,Starmount,7900 Nations Ford Rd,Charlotte,NC,28217,35.145849,-80.8965759,1.5,5,1,Hotels & Travel;Event Planning & Services;Hotels,,
k7wXMfLPfsMfFHf5wBrZuw,Butch's Saloon,Null,10009 W 130th St,North Royalton,OH,44133,41.336731,-81.7847172,2.5,7,1,Restaurants;Bars;Caterers;Nightlife;Barbeque;Event Planning & Services;Steakhouses,casual,very_loud
bH7LuwwqgO-gZk1VIlNk7w,Paradise Poker Pub,Southeast,955 Grier Dr,Las Vegas,NV,89119,36.0680298,-115.14201070000001,4.5,6,1,Nightlife;Active Life;Bars;Sports Clubs,,very_loud
ZCrK07xb6w5Vi1vathV0NQ,Bapbo Korean Restaurant,Downtown Core,142 Dundas Street W,Toronto,ON,M5G 1C3,43.655606299999995,-79.38496640000001,3.0,101,1,Japanese;Restaurants;Korean,casual,average
iHr3m4M3nuDEkMP5_XcmEg,Grille 565,Bellevue,565 Lincoln Ave,Bellevue,PA,15202,40.4964748041,-80.0577745856,4.0,28,1,Nightlife;American (Traditional);Chicken Wings;Restaurants;Bars,casual,average
egPh4kKRsySCrDyExsM63g,M-Nails,Null,"5303 Poplar Tent Rd, Ste 220",Concord,NC,28027,35.4109054,-80.6668265,4.0,4,1,Nail Salons;Beauty & Spas,,
VxnZy3cU-ItbYiDK5XDX8g,Red Lotus,Null,10909 Yonge Street,Richmond Hill,ON,L4C 3E3,43.8914289676,-79.4404220581,2.0,4,0,Restaurants;Chinese,casual,
t4NBRC-d7rnzCgM7D1o9BQ,The Wellness Room,Null,"7345 E Shoeman Ln, Ste 2",Scottsdale,AZ,85251,33.500524,-111.92234599999999,5.0,3,1,Life Coach;Health & Medical;Reiki;Professional Services;Active Life;Fitness & Instruction;Yoga,,
4nJWUXQqm8vxubgC_0AcCQ,Big Moe's Burgers,Milliken,3517 Kennedy Road,Scarborough,ON,M1V 4S4,43.8229701,-79.3063733,3.0,88,0,Burgers;Restaurants,casual,average
jpDaJerAGFIMs-cXLQdheA,Lee's Discount Liquor,Null,4427 E Sunset Rd,Henderson,NV,89014,36.069495,-115.0764259,3.5,39,1,Food;Beer;Wine & Spirits,,
KJGJuPp0Qf-si093crnskg,All Star Massage Therapy,Spring Valley,"10170 W Tropicana Ave, Ste 156",Las Vegas,NV,89148,36.081653,-115.300468,5.0,4,1,Active Life;Beauty & Spas;Massage Therapy;Reflexology;Massage;Health & Medical,,
zU6ZSn1sXaY5qVi23GRjwg,Safe Nest,Westside,"2915 W Charleston Blvd, Ste 12",Las Vegas,NV,89102,36.1584245,-115.18099550000001,2.5,16,1,Community Service/Non-Profit;Local Services,,
wJPMhsfcqG9olVntkNYVjQ,Desert Schools Federal Credit Union,Null,23565 N Scottsdale Rd,Scottsdale,AZ,85255,33.6991832369,-111.92368493200001,2.5,3,1,Banks & Credit Unions;Financial Services;Auto Loan Providers;Automotive,,
pjuYTBn298E5EFSVRRqLDw,"Pablo Prichard, MD",Null,"8900 E Raintree Dr, Ste 200, Advanced Aesthetic Associates",Scottsdale,AZ,85260,33.619089,-111.888659,5.0,3,1,Health & Medical;Skin Care;Medical Centers;Beauty & Spas;Cosmetic Surgeons;Doctors;Medical Spas,,
X1mi-K0uh_YdFIO44EUOgw,Wildfire Anthem,Anthem,2551 Anthem Village Dr,Henderson,NV,89052,35.9796433,-115.09921750000001,3.5,4,1,Shopping;Videos & Video Game Rental;Casinos;Arts & Entertainment;Bars;Books;Mags;Music & Video;Nightlife,,average
JGmY9Yvtc_LKcRH7JJHGvg,Ca Lem,Notre-Dame-de-Grâce,6926 Rue Sherbrooke O,Montréal,QC,H4B 1P9,45.4600731,-73.6355623,4.5,39,1,Food;Ice Cream & Frozen Yogurt,,
MWWOPM-o6lCEQ_SyD9AoaA,Dairy Queen,Null,4846 Library Rd,Bethel Park,PA,15102,40.34636210000001,-80.0276574,4.0,9,1,Juice Bars & Smoothies;Fast Food;Ice Cream & Frozen Yogurt;Food;Restaurants,casual,quiet
Oje0eeorhyDyhFRNTl4dOA,Concepts Salon & Spa-Toronto,Yorkville,60 Bloor Street W,Toronto,ON,M4W 3B8,43.67010429999999,-79.3892762,3.5,27,1,Skin Care;Beauty & Spas;Hair Salons,,
Kq9vZvyJp4LalLF2sh0kYg,Jos. A. Bank,Null,"16710 Birkdale Commons Pkwy, Ste 101",Huntersville,NC,28078,35.4439640267,-80.8814388514,2.5,7,1,Men's Clothing;Shopping;Plus Size Fashion;Fashion;Formal Wear,,
t-BogmVlO9o2TxH_ksE-HA,Kapamilya Asian Market,Southwest,"8180 Blue Diamond Rd, Ste 120",Las Vegas,NV,89113,36.020917100000005,-115.2695342,4.0,8,0,Food;Grocery;Ice Cream & Frozen Yogurt,,
CKE9s1ClMaBgCkZ5hh2SHA,Campus Club Uniforms,Spring Valley,"7575 W Sunset Rd, Ste 120",Las Vegas,NV,89113,36.06968079999999,-115.2561699,2.5,7,1,Uniforms;Shopping,,
97t_xiNRGScqfq-uHLAsSg,"Matthew J Smith, DDS",Null,14704 Detroit Ave,Lakewood,OH,44107,41.485465999999995,-81.799761,5.0,7,1,Health & Medical;General Dentistry;Dentists,,
ByiSWioaXbg3Ee6eKn90zg,Ritual Hair Skin Beauty,Niagara,789 King Street W,Toronto,ON,M5V 1N4,43.6430638,-79.4067792,3.5,21,0,Beauty & Spas;Nail Salons;Hair Salons;Day Spas,,
hWDTAVDMbM-J3TB3P190Ag,Charlotte Mecklenburg Library - University City Regional,University City,301 East W T Harris Blvd,Charlotte,NC,28262,35.30303920000001,-80.74656929999999,4.0,9,1,Public Services & Government;Books;Mags;Music & Video;Educational Services;Education;Bookstores;Libraries;Shopping,,
e7naoIkhauDUpmvu-1ymMg,Maggie's Thrift,Null,1517 E McDowell Rd,Phoenix,AZ,85006,33.465523600000004,-112.0489439,4.5,13,1,Shopping;Thrift Stores,,
DIumS3PWQkWCj9PpSgbKSQ,Valenti Frank Tailor,Southeast,"3614 E Sunset Rd, Ste 100",Las Vegas,NV,89120,36.0720375,-115.0960831,2.5,3,1,Local Services;Sewing & Alterations,,
gqaiCtDQI525aS0whzKSKQ,Goodwill,Null,1346 W Southern Ave,Mesa,AZ,85202,33.3935815,-111.8608449,3.0,4,0,Thrift Stores;Shopping,,
tNQJ8d6sCUesv9cxqgSmqA,Desert Dentistry,Null,4609 E Chandler Blvd,Phoenix,AZ,85048,33.3049413448,-111.982905944,4.5,57,1,General Dentistry;Dentists;Cosmetic Dentists;Orthodontists;Health & Medical,,
qCsxrmnqA5o1djIwnauG4g,All Ale to the Queen - Beer Carnival,South End,Amos' Southend,Charlotte,NC,28203,35.2164392741,-80.8552172064,4.0,3,1,Local Flavor;Arts & Entertainment;Festivals;Yelp Events,,
vtEwge-BXI5DHTwYKgK25Q,Chez Latina,Plateau-Mont-Royal,185 Rue Viateur O,Montréal,QC,H2T 2L4,45.523742999999996,-73.601012,4.0,17,1,Specialty Food;Grocery;Event Planning & Services;Fruits & Veggies;Delicatessen;Caterers;Cheese Shops;Food;Meat Shops;Bakeries,,
eRTjfiqyk2xJ_s4dI5BCxw,EVDI Medical Imaging,Null,"665 N Gilbert Rd, Ste 154",Gilbert,AZ,85234,33.3639248083,-111.788869458,3.5,6,1,Diagnostic Services;Diagnostic Imaging;Health & Medical;Medical Centers,,
1XHDkz_n-H3U--xCmC1Lmw,Paramount Fine foods,Yonge and Eglinton,2311 Yonge Street,Toronto,ON,M4P 2C6,43.7078265,-79.39831629999999,2.5,16,1,Restaurants;Middle Eastern;Breakfast & Brunch,casual,loud
16rLCEnPWG1jYAgY7NorTQ,Parc Central,Null,15323 N Scottsdale Rd,Scottsdale,AZ,85260,33.625567499999995,-111.9244742,3.5,40,0,Restaurants;American (New),dressy,average
GqVYiZNJnuLV7I4u3u3PDw,Milio's Subs,Schenk - Atwood,2045 Atwood Ave,Madison,WI,53704,43.092071399999995,-89.3535202,2.5,3,0,Restaurants;Sandwiches,,
w9TXFk3zKcVQJ92Ow992mg,Ice 'n Cake,Null,30 Clock Tower Road,Toronto,ON,M3C,43.7339092,-79.34541159999999,3.5,44,1,Coffee & Tea;Food;Ice Cream & Frozen Yogurt;Desserts,,
M4Y8LZ5Ds3HXFAWtjBePQw,Salon G,Ville-Marie,400 Rue Saint-Catherine E,Montréal,QC,H2L 2C5,45.513811,-73.559894,4.0,4,1,Restaurants;Breakfast & Brunch;Coffee & Tea;Food,,
wOqMqriEaxFPAH8i6KUudg,Allstate Insurance: Blair Bogdan,Null,120 Clairton Blvd,Pleasant Hills,PA,15236,40.338772,-79.959519,5.0,10,1,Insurance;Home & Rental Insurance;Financial Services;Auto Insurance;Life Insurance,,
QZoCTRj9WYiLFWt4OGNGmg,Chase Bank,Summerlin,"1990 Village Center Cir, Ste 7-8",Las Vegas,NV,89134,36.192978000000004,-115.30408700000001,4.5,7,1,Banks & Credit Unions;Mortgage Brokers;Financial Services;Real Estate;Home Services,,
EtWhX8jFs9rgDrvEOpFeIw,Subway,Westside,8000 W Sahara Ave,Las Vegas,NV,89117,36.1442895,-115.26600800000001,2.0,12,1,Restaurants;Fast Food;Sandwiches,casual,
CYD45HQ_cg2W2plhBvgYbw,Ahuja Medical Center Gift Shop,Null,3999 Richmond Rd,Beachwood,OH,44122,41.4527508,-81.4952567,5.0,3,1,Accessories;Fashion;Shopping;Flowers & Gifts;Gift Shops,,
iO0UyLOAfKLcxovPFpwnMA,Amy's Hallmark Shop,Null,"8420 Park Rd, Ste 14",Charlotte,NC,28210,35.117237,-80.85595550000001,3.5,3,1,Arts & Crafts;Shopping;Cards & Stationery;Flowers & Gifts;Gift Shops;Event Planning & Services,,
h-d_VFNa8PzeMhB_QYnyhw,TD Waterhouse,Null,"3500 Steeles Avenue E, Tower 2, 2nd Floor",Markham,ON,L3R 0X1,43.817610200000004,-79.3384704,1.0,3,1,Investing;Financial Services,,
hTdJAjSZtHWwqqh5cCeAfA,Red Lobster,Scarborough,3252 Sheppard Avenue E,Scarborough,ON,M1T 3K3,43.7771841,-79.31477840000001,3.0,75,1,American (Traditional);Restaurants;Seafood,casual,average
bXCI53RX7m1dZSko2jE-Dg,Papago Softball Complex,Null,6201 E Oak St,Phoenix,AZ,85008,33.4703505349,-111.945292298,4.0,3,1,Parks;Active Life,,
1eyfFwXY0NCS7SMXmgl_Dw,Bertolini's Authentic Trattoria,Westside,9500 W Sahara Ave,Las Vegas,NV,89117,36.1449499,-115.301818,5.0,5,0,Restaurants;Italian,casual,
YppL6BIau6ZXitbGqGyecA,Winners,Queen Street West,585 Queen Street W,Toronto,ON,M5V 2B7,43.647472799999996,-79.4016891,3.0,21,1,Fashion;Women's Clothing;Discount Store;Department Stores;Men's Clothing;Accessories;Shopping,,
d4G4opeYsza7r4N6Us03ig,McDowell Village,Null,8300 E McDowell Rd,Scottsdale,AZ,85257,33.465906,-111.902533,4.0,7,1,Retirement Homes;Home Health Care;Health & Medical,,
cUhIkGT4RCc-X8ZapWv0qg,Yoga Tree,Downtown Core,"140 Spadina Avenue, Unit 201",Toronto,ON,M5V 2L4,43.647737812299994,-79.3962831521,3.5,25,1,Fitness & Instruction;Active Life;Yoga;Trainers,,
_3-msRL3HMnuELlSQIHmmA,Vios Painting,Null,,Glendale,AZ,85308,33.664516,-112.2026347,5.0,4,1,Home Services;Painters;Drywall Installation & Repair,,
wv9B5u9KU5FsTtu3D3EVyQ,Pink Social Girl Tribe Holiday Market,Null,215 Southside Dr,Charlotte,NC,28217,35.18542120000001,-80.8809845,4.5,3,1,Pop-up Shops;Shopping,,
wSov0LEvpLIzVqBQR8BInw,Verizon Wireless,Null,1903 N Neil St,Champaign,IL,61820,40.1394839908,-88.2447656474,2.5,3,1,Electronics;Mobile Phone Accessories;Shopping;Mobile Phones,,
o7SFqdGSl7kTYVneIsDLDA,Magoo's-Cheyenne,Northwest,7360 W Cheyenne Ave,Las Vegas,NV,89129,36.218555,-115.255569,3.5,19,1,Sports Bars;Nightlife;Bars,,
L2p0vO3fsS2LC6hhQo3CzA,Matt's Big Breakfast,Null,825 N 1st St,Phoenix,AZ,85004,33.4574481513,-112.072295342,4.0,1520,1,Restaurants;Breakfast & Brunch,casual,loud
aOqxfJXNdKWu094S_1Mudg,Majestic Cabinets,Sunrise,"4405 E Sahara Ave, Ste 05",Las Vegas,NV,89104,36.143430200000005,-115.078471,4.5,8,1,Door Sales/Installation;Contractors;Refinishing Services;Cabinetry;Home Services;Flooring;Countertop Installation,,
u3NZBeTnyP09o2k2paIlCw,DA Milewski Household Cleaning,Null,,Mesa,AZ,85206,33.3951613,-111.70184520000001,2.5,12,1,Restaurants;Home Services;Home Cleaning,,
GkR3S71b3tj32AAe_wgXkQ,HairColorXperts,Null,16620 Cranlyn Rd,Huntersville,NC,28078,35.4449027,-80.8770459,4.5,10,1,Waxing;Hair Removal;Beauty & Spas;Hair Stylists;Hair Salons,,
fl6QedVx8-ZoQK8us_eeGA,Place des Festivals,Ville-Marie,Rue Sainte-Catherine Ouest & Rue Jeanne-Mance,Montreal,QC,H2X 3X5,45.5075114085,-73.5675933212,4.0,12,1,Active Life;Arts & Entertainment,,
giqAQ9tQSpUoC2CGT5QJAw,The Residences at Stadium Village,Null,16485 North Stadium Way,Surprise,AZ,85374,33.6356176,-112.3789392,3.5,11,1,Apartments;Real Estate;Home Services,,
CRXeGUi9U74L9aP1KDcteA,Expert Lock and Key,Null,,Charlotte,NC,28216,35.3202223,-80.8875861,5.0,3,1,Keys & Locksmiths;Automotive;Home Services,,
fmNIRNKMxcJSzCrR8meOuQ,Le Coq de l'Est,Mercier-Hochelaga-Maisonneuve,8803 Rue Hochelaga,Montréal,QC,H1L 2N1,45.602533924,-73.5193758331,4.0,11,1,Canadian (New);Restaurants,,
bEFKVVuX84gh49S0ryArLg,24 Hour Fitness,Sunrise,4480 E Charleston Blvd,Las Vegas,NV,89104,36.159979487600005,-115.07757479799999,3.0,19,1,Active Life;Fitness & Instruction;Trainers;Gyms,,
OMwbdoOXnY-lX0_j3Og8bQ,Pure Wax & Beaute Bar,Highland Creek,"4845 Johnston-Oehler Rd, Ste 101",Charlotte,NC,28269,35.365559600000005,-80.785871,4.5,38,1,Day Spas;Hair Removal;Beauty & Spas;Skin Care;Makeup Artists;Waxing,,
HYfQlZwPAmmMHfxsmi95QA,South Hills Mower,Null,5345 Main St,Bethel Park,PA,15102,40.3263904,-80.0368899,5.0,3,1,Local Services;Shopping;Auto Repair;Automotive;Farm Equipment Repair;Farming Equipment;Recycling Center;Home Services;Gardeners,,
aFDv1FZuUck7QKRNY6Sbjw,Jazzberry Tea House,Null,"109 Old Kingston Road, Unit 7",Ajax,ON,L1T 3A6,43.8538369,-79.0599095,4.0,5,1,Food;Cafes;Restaurants;Tea Rooms;Coffee & Tea,,
tA1YZNIngWh3icwwXi1yuw,Tula Organic Salon & Spa,Squirrel Hill,2629 Murray Ave,Pittsburgh,PA,15217,40.428913,-79.9239236,4.5,59,1,Beauty & Spas;Day Spas;Hair Extensions;Hair Salons,,
2FImjoBv0qvq9NumhcVOyA,South Asia Malaysian Cuisine,Milliken,3700 Midland Avenue,Toronto,ON,M1V 5B5,43.8149317,-79.2930098,3.5,48,1,Chinese;Restaurants;Malaysian,casual,average
OpG0xj_aZQEv1Ac_Zy5MBg,Rio Logo Gift Shop,Null,3700 W Flaming Rd,Las Vegas,NV,89121,36.1186981201,-115.186439514,2.5,3,1,Flowers & Gifts;Shopping;Gift Shops,,
r95Nmh323i4_C3GwhwSdYg,Sycamore Creek Apartments,Null,6599 E Thomas Rd,Scottsdale,AZ,85251,33.4783608,-111.9372822,2.0,8,0,Home Services;Apartments;Real Estate,,
rKI_nJlYw_DmywFepnmtEQ,Valumart,Yorkville,55 Bloor St W,Toronto,ON,M4W 1A5,43.6695671,-79.3885937,3.5,3,1,Shopping;Food;Home & Garden;Grocery,,
zHmLmqgXgwSKI5_-m_IY7g,Phoenix Indoor Karting,Null,3401 W Greenway Rd,Phoenix,AZ,85053,33.624127028000004,-112.131785005,2.5,34,1,Arcades;Venues & Event Spaces;Restaurants;Race Tracks;Active Life;Arts & Entertainment;Event Planning & Services;Go Karts,,
JOl0r5J4bDfUb0lIU7awFg,Super 8 Motel Pittsburgh-Harmarville,Null,8 Landings Dr,Harmarville,PA,15238,40.539986,-79.82793050000001,2.0,10,1,Hotels & Travel;Hotels;Event Planning & Services,,
6Du78g14y2MyDSEWxcwOmw,Asian Market,Null,2105 Acme Rd,Belmont,NC,28012,35.271904799999994,-81.0476533,3.5,3,1,Grocery;Food,,
0euGYOEnK7qKkw3CHJ6nag,Steelcase Tires N Mags,Null,370 Steelcase Road E,Markham,ON,L3R 1G2,43.8228401,-79.33981690000002,3.5,6,1,Automotive;Tires,,
S6TP_aHo6d7AkkBBKe249A,Red River BBQ,Null,1401 E Bell Rd,Phoenix,AZ,85022,33.6399,-112.05204579999999,2.5,106,0,Sandwiches;American (Traditional);Restaurants;Barbeque;Pizza,casual,average
2AJW_6QarzJE9BhaXFfyaw,August Wilson Center For African American History,Downtown,980 Liberty Ave,Pittsburgh,PA,15222,40.4432916,-79.9955712,4.0,9,1,Shopping;Arts & Entertainment;Performing Arts;Art Galleries,,
6QaJkNUxgAfLeQ8hrKAC5Q,Fry's Food Stores,Null,4724 N 20th St,Phoenix,AZ,85016,33.507044,-112.04151999999999,3.0,80,1,Food;Shopping;Grocery;Drugstores,,
q96bjTHL-spsY4cDahdcXw,After Hours Auto and Truck,Null,7114 E Thomas Rd,Scottsdale,AZ,85251,33.4805415,-111.92881259999999,5.0,16,1,Auto Repair;Oil Change Stations;Automotive;Tires,,
O9Ukz3F4BW_MbvLnaQYxRg,Supermarket Restaurant and Bar,Kensington Market,268 Augusta Avenue,Toronto,ON,M5T 2L9,43.6564466972,-79.4029140472,3.5,73,1,Tapas/Small Plates;Lounges;Dance Clubs;Bars;Canadian (New);Nightlife;Restaurants,casual,loud
ba5jCpBlDpJCnq7tV9WeKg,Peto's Car Magic,Null,1451 W Bagley Rd,Berea,OH,44017,41.372106,-81.89506899999999,5.0,3,1,Automotive;Body Shops;Auto Repair,,
eBs-OHpZFuBwzJ-dEQtePw,Lovesac,Null,3111 W Chandler Blvd,Chandler,AZ,85226,33.3011766353,-111.89853608600001,4.0,9,1,Furniture Stores;Shopping;Home & Garden,,
_YzwG_p4MXtZnb3ZEDLmdg,Brit & Chips,Ville-Marie,433 Rue McGill,Montréal,QC,H2Y 2H1,45.5006975,-73.5580968,4.0,209,1,Fish & Chips;Restaurants;British,casual,average
7O73RNyj3XaQWSdv_1jm_g,Monarch Theatre,Null,122 E Washington St,Phoenix,AZ,85004,33.448586,-112.07191999999999,2.5,50,1,Music Venues;Performing Arts;Arts & Entertainment;Dance Clubs;Nightlife,,very_loud
i0vXeFOD6e-DZ8cBwxaQRQ,Maya,Null,7700 W Arrowhead Towne Ctr,Glendale,AZ,85308,33.642089399999996,-112.22540670000001,4.5,73,0,Food;Ice Cream & Frozen Yogurt;Desserts;Restaurants;Indian,casual,quiet
Za2eCgmhqVtqbsydGucpeQ,Arizona Iron Patio Furniture,Null,1209 Grand Ave,Phoenix,AZ,85007,33.456204,-112.08881399999999,5.0,22,1,Masonry/Concrete;Furniture Reupholstery;Home & Garden;Furniture Stores;Awnings;Local Services;Home Decor;Outdoor Furniture Stores;Shopping;Home Services;Patio Coverings;Shades & Blinds,,
eK5qRJbXFxLaChcSXMwZGg,Avenue 25 Advertising & Design,Null,"9201 N 25th Ave, Ste 120",Phoenix,AZ,85021,33.5698657,-112.1113345,5.0,8,1,Web Design;Marketing;Advertising;Graphic Design;Professional Services,,
aivNhZ9sArYQ2XHfCocHng,Dreamland Cafe,Spring Valley,4126 S Rainbow Blvd,Las Vegas,NV,89103,36.112921,-115.241952,5.0,4,1,Bubble Tea;Cafes;Food;Juice Bars & Smoothies;Restaurants,casual,
4F_7Ihf9FBXCW6PUllXptA,Big League Dreams Sport Park,Null,3151 E Washington Ave,Las Vegas,NV,89101,36.1791985,-115.10210459999999,3.5,36,1,Arts & Entertainment;Parks;Amateur Sports Teams;Active Life;Stadiums & Arenas,,
eorYh3m3a9bAV2EZe8i64w,LMP 360 Media,Null,,Surprise,AZ,85388,33.6386108398,-112.326927185,4.0,5,1,Event Planning & Services;Photographers;Real Estate Agents;Home Services;Real Estate,,
H4env79kgi0Xh3OjIIjrdA,Lyte Lounge & Bistro,Null,"7419 E Indian Plaza, Ste B",Scottsdale,AZ,85251,33.501429800000004,-111.92119209999998,3.5,9,0,Nightlife;Restaurants;Tapas Bars;Lounges;Bars,dressy,
3Sm8GncbpIwnCE2M55TIbA,Fox's Pizza Den,Null,3356 Route 130,Harrison City,PA,15636,40.3555148,-79.6514069,3.0,3,1,Pizza;Sandwiches;Restaurants,,
Wyg1B6UZVongcnC9LA-lTA,Deb's Doggie Door,Eastside,3160 E Desert Inn Rd,Las Vegas,NV,89121,36.130072,-115.106374,4.5,8,1,Pet Groomers;Pets;Pet Services,,
VZQ7R-LYP8Ja9k_-ODnJpw,Z India,Westside,1116 S Rainbow Blvd,Las Vegas,NV,89146,36.158492032199995,-115.24274595799999,4.0,9,0,Asian Fusion;Caterers;Event Planning & Services;Restaurants;Indian,casual,quiet
aNOZxz80w0fv4mYLB2VXfA,Madison Optometric Center,Capitol,615 State St,Madison,WI,53703,43.0748713,-89.3962042,4.0,5,0,Health & Medical;Shopping;Optometrists;Eyewear & Opticians,,
IPpz3dROk6PBhiYM-DEISw,The Wexford Pub,Null,10576 Perry Hwy,Wexford,PA,15090,40.612545674699994,-80.05314540270001,3.5,28,1,Bars;Nightlife;Pubs;Gastropubs;Restaurants,,average
GbcxFOH_0fukOTHXcv1VNw,"Patrick Carter, DDS - Happy Dental PC",Null,"835 W Warner Rd, Ste 112",Gilbert,AZ,85233,33.3340413,-111.80757630000001,4.5,6,1,General Dentistry;Health & Medical;Cosmetic Dentists;Endodontists;Dentists,,
y0qIyD4Y1TzFjVo0LgFTiQ,Pizzeria Gema Crèmerie,Rosemont-La Petite-Patrie,6827 Rue Saint-Dominique,Montréal,QC,H2S 3B1,45.5333502,-73.613169,4.0,55,1,Restaurants;Ice Cream & Frozen Yogurt;Pizza;Food,casual,loud
TmH8aDXorJ9I5FFi90nKGw,A Better Party,Null,7701 N 38th Dr,Phoenix,AZ,85051,33.5496,-112.14116899999999,4.5,9,1,Event Planning & Services;Party & Event Planning,,
o-0MUbfZAMCc-0h3zzau8A,Glen's Frozen Custard,Null,400 Pittsburgh St,Springdale,PA,15144,40.5409796,-79.7882199,4.5,34,1,Food;Ice Cream & Frozen Yogurt,,
piOOqzNm8MZh13EO4Ot8_Q,Rona,Saint-Laurent,3600 Boulevard de la Côte-Vertu,Saint-Laurent,QC,H4R 1P8,45.4926547,-73.7095466,1.5,3,1,Building Supplies;Home Services;Hardware Stores;Home & Garden;Kitchen & Bath;Shopping,,
-JkxHGA3nBASzwYdBDAiow,Bruegger's Bagels,Null,20619 Torrence Chapel Rd,Cornelius,NC,28031,35.4857295,-80.8784194,2.5,29,1,Sandwiches;Restaurants;Breakfast & Brunch;Food;Bagels,casual,quiet
fGbH3jQVRan1EOtRzG9U-w,Ross Dress for Less,Sunrise,"121 N Nellis Blvd, Charleston Commons",Las Vegas,NV,89110,36.1616906,-115.0623777,2.0,12,1,Men's Clothing;Home & Garden;Fashion;Women's Clothing;Home Decor;Department Stores;Discount Store;Shopping,,
8Lo4wYeBOosQ2OMz64Rtgw,Royal Park Fine Wine,Null,12770 Royalton Rd,North Royalton,OH,44133,41.315225899999994,-81.7834231,4.0,5,1,Food;Beer;Wine & Spirits,,
BDxYQ1owGhxpwyR1W4Mkfg,Vaughan Chrysler Dodge Jeep,Null,1 Auto Park Circle,Vaughan,ON,L4L 8R1,43.785267,-79.54790159999999,1.0,3,1,Auto Repair;Automotive;Auto Parts & Supplies;Auto Detailing;Car Dealers,,
VusoqxEm0o5XYSwhVaIOFw,Computer Plumber,Null,"5210 Poplar Tent Rd, Ste 20",Concord,NC,28027,35.41378063,-80.6641660812,5.0,5,1,IT Services & Computer Repair;Local Services,,
8eeRctF8Tvv9TBTz7n4hGQ,Tim Hortons,Downtown Core,2 Queen St E,Toronto,ON,M5C 3G7,43.652795399999995,-79.378889,3.0,4,1,Food;Coffee & Tea;Donuts,,
-Qin00xq25JE5aV1ODKkFw,Wilhelm Automotive,Null,13973 W Indian School Rd,Litchfield Park,AZ,85340,33.485485,-112.359275,4.0,26,1,Roadside Assistance;Hybrid Car Repair;Automotive;Auto Repair,,
TFzdiAKlWdTteocfwglHVw,Charlotte Yarn,Dilworth,1235 E Blvd,Charlotte,NC,28203,35.2027515,-80.8450744,4.5,8,1,Hobby Shops;Shopping;Arts & Crafts,,
XQ7F-cP4UtbnZOw8a3f6IA,Pristine Inspections & Testing,Null,3912 Trailway Dr,Champaign,IL,61822,40.126523,-88.31074090000001,4.5,6,1,Screen Printing;Local Services;Printing Services;Home Services;Environmental Testing;Home Inspectors;Contractors,,
TJQ10Np6miUawp7a6vLMhw,Tacos Cancun,Downtown,3513 E Charleston St,Las Vegas,NV,89104,36.158752899999996,-115.0971613,4.0,4,1,Street Vendors;Food,,
ngJrk6N8imHz21U3y2ZC3Q,Driftwood Family Chiropractic,Null,5355 W Chandler Blvd,Chandler,AZ,85226,33.30492,-111.93428700000001,5.0,12,1,Chiropractors;Health & Medical,,
D-qSt4PymjtoJ9w2e-cS4g,Sofitel,Ville-Marie,Rue Peel 3430,Montréal,QC,H3A 1W8,45.5022614,-73.5773691,5.0,3,1,Event Planning & Services;Hotels & Travel;Hotels,,
kEF7ubBHTRbYviW2XVtF8w,UR Mailbox Business Center,Southwest,"7835 S Rainbow Blvd, Ste 4",Las Vegas,NV,89113,36.045795,-115.2441173,2.5,19,1,Shipping Centers;Local Services,,
2ibHw8fEk3o8E7STU4VBaA,Autozone,Null,119 N Power Rd,Mesa,AZ,85205,33.4175441,-111.68389099999999,4.0,4,1,Auto Parts & Supplies;Automotive,,
ykAW5o5G1BXVQ9ch_9ErIQ,Planet Beach Contempo Spa,University,"4632 S Maryland Pkwy, Ste 16",Las Vegas,NV,89119,36.1051763336,-115.13654708899999,4.0,5,0,Day Spas;Tanning;Beauty & Spas,,
kxbHgnYIrNgSyvAqLIug2w,House of Vintage,Parkdale,1239 Queen Street W,Toronto,ON,M6K 1L5,43.6416486,-79.4303805,4.5,4,1,Fashion;Shopping;Accessories;Used;Vintage & Consignment,,
e4VCE1DTjQlidU7QillnDA,Art By Sarah King,Null,1915 Magnolia Dr,Henderson,NV,89014,36.055364000000004,-115.069648,5.0,3,0,Art Classes;Shopping;Education;Arts & Entertainment;Art Schools;Specialty Schools;Arts & Crafts,,
DHoUaeL5XqRX083cptIHBA,Lemon Street Tacos,Null,909 E Lemon St,Tempe,AZ,85281,33.4165712,-111.9255048,4.5,9,1,Bars;Lounges;Tacos;Mexican;Nightlife;Restaurants,casual,
qsEbriXbvQVaORyJSkCEzQ,Starbucks,Spring Valley,6080 W Badura Ave,Enterprise,NV,89118,36.0627245611,-115.22434106899999,3.0,74,1,Coffee & Tea;Food,,
3zq5GfsUvJvLiDnnn1Yp8w,Hôpital Vétérinaire Journet,Plateau-Mont-Royal,2320 Avenue du Mont-Royal E,Montréal,QC,H2H 1K8,45.537718164,-73.5697032263,5.0,5,1,Pets;Veterinarians,,
JXgIK23h2AKsNIn2De1VFg,Ryan's Pet Supplies,Null,1805 E McDowell Rd,Phoenix,AZ,85006,33.4657642,-112.04315430000001,4.0,100,1,Pets;Shopping;Wholesale Stores;Pet Services;Pet Stores,,
04J0jzIQnBvFE5AlQHiLgg,Zetian Limousine,Null,"6841 N Glen Harbor Blvd, Ste 3",Glendale,AZ,85307,33.5336413,-112.29550230000001,4.0,8,1,Limos;Professional Services;Personal Assistants;Transportation;Hotels & Travel,,
CVEfJWVg4DaVAgFHAsYoMQ,Public Storage,Null,8122 E Paradise Ln,Scottsdale,AZ,85260,33.63330070000001,-111.90453259999998,4.5,16,1,Self Storage;Local Services,,
CwtjAViLdvXurW67H-7G3Q,Priory Fine Pastries,North Side,528 E Ohio St,Pittsburgh,PA,15212,40.4538855,-79.999765,4.0,40,1,Food;Custom Cakes;Bakeries,,
HTtzkGwQ1jPP2m4os-mAyA,Ruby Tuesday,Null,7780 Lyles Lane Nw,Concord,NC,28027,35.366481,-80.71159899999999,3.0,28,1,Nightlife;Burgers;Restaurants;Bars;American (Traditional);American (New),casual,average
5wR7vDG6u7NmWu2zOI2DCQ,Grand Pacific Chapel,Null,7970 Columbia Rd,Olmsted Falls,OH,44138,41.3761873,-81.90165859999999,4.5,3,1,Wedding Chapels;Venues & Event Spaces;Event Planning & Services,,
j_LHI3Zb0r0tWG3aZnihBg,Sharyn Younger - Glass House International Real Estate,Null,"3100 W Ray Rd, Ste 102",Chandler,AZ,85226,33.320853899999996,-111.8956598,5.0,12,1,Home Staging;Real Estate Services;Home Services;Real Estate;Real Estate Agents,,
KNsz0aMEJn-9TYJt9Zyf7A,Accident Chiropractic & Wellness Center,Null,255 N Arizona Ave,Chandler,AZ,85225,33.307165000000005,-111.84109309999998,4.5,3,1,Chiropractors;Health & Medical,,
IzBOJTnKQkanSViAn8FX_w,McDonald's,Null,2665 S Alma School Rd,Mesa,AZ,85210,33.366182,-111.85857730000001,1.5,27,1,Fast Food;Restaurants;Burgers,casual,very_loud
FmwDfn5J7Y8Uvv_FY7iUxQ,Blue Lagoon Seafood Master,Null,"888 Dundas Street E, Unit C3&4",Mississauga,ON,L4Y 4G6,43.5978234746,-79.59370628,3.0,131,1,Restaurants;Chinese;Burgers;Barbeque;Dim Sum;Seafood,casual,average
KE-F3ZumDNwpTnCsOj6BLw,Symphony Park,Downtown,495 S Main St,Las Vegas,NV,89101,36.1701545715,-115.151069641,4.5,16,1,Active Life;Parks,,
L6xMqBwK_DQJyPMY-VGRsA,Tim Hortons,Scarborough,1621 Birchmount Road,Scarborough,ON,M1P 2J3,43.7642408564,-79.2911242694,1.5,3,1,Food;Coffee & Tea;Restaurants;Cafes;Donuts,casual,average
4u1iOihWOVkgNTId927fHg,El Local Loco,St. Lawrence,9 Church St,Toronto,ON,M5E 1M2,43.6478315,-79.3732265,3.5,94,1,Bars;Tapas/Small Plates;Latin American;Lounges;Restaurants;Mexican;Cocktail Bars;Nightlife,casual,average
mbKjmz8NIAJGce3Vy3-0hQ,Valley Tavern,Null,5907 Canal Rd,Valley View,OH,44125,41.402219,-81.6260022,3.5,7,1,Comfort Food;Burgers;Nightlife;Restaurants;Dive Bars;Bars,,quiet
VyK8O5bVxSqge4zMur2IgA,O'sho Dry Cleaners,City Place,66 Fort York Boulevard,Toronto,ON,M5V 3Z3,43.6400366,-79.39564709999999,1.0,3,1,Local Services;Laundry Services;Dry Cleaning & Laundry;Dry Cleaning,,
wnG7pj-_-EMBqLCT-zqJXw,Tony's Auto Works,Null,4021 Brecksville Rd,Richfield,OH,44286,41.2449773,-81.6375485,4.0,4,1,Automotive;Auto Repair,,
61QCBCJHB4-03eoRbprZFw,Elite Paw Spa,Null,"4880 S Gilbert Rd, Ste 3",Chandler,AZ,85249,33.2358811,-111.78951670000001,4.0,15,1,Pet Services;Pet Groomers;Pet Training;Pets,,
kXjGQCMXpWIkgDBrMCB_cA,Intermix Fitness,Null,"1770 W Horizon Ridge Pkwy, Ste 110",Henderson,NV,89012,36.010720299999996,-115.0648029,5.0,10,0,Weight Loss Centers;Trainers;Nutritionists;Health & Medical;Challenge Courses;Fitness & Instruction;Active Life,,
-UFf6RHGrzT5kLA33buMYg,Colossus Tattoo,Null,"225 W University, Ste 110",Tempe,AZ,85281,33.4217144,-111.94299740000001,5.0,8,1,Tattoo;Beauty & Spas,,
sXBqOCPPiPx0oMCfIOqxNA,Snip-its Chandler,Null,3415 W Frye Rd,Chandler,AZ,85226,33.2954689,-111.89921729999999,4.0,56,1,Hair Salons;Beauty & Spas,,
gigz3ncOG95BjKk14vmJSg,Sterling Magnolia Apartments,Elizabeth,"3720 Wendwood Ln, Ste 103",Charlotte,NC,28211,35.18727,-80.808814,4.0,8,1,Home Services;Apartments;Real Estate,,
6ffiaU3b5SYpHSCrAPoUFg,Stuffington Bear Factory,Null,2302 E Thomas Rd,Phoenix,AZ,85016,33.480796999999995,-112.032354,3.5,9,0,Toy Stores;Shopping,,
TVImHBasFIyl_-wh6yaxvA,Urban Bistro,Yonge and St. Clair,21 Street Clair W,Toronto,ON,M4V 1K6,43.6878267,-79.3949719,5.0,4,0,Food;Street Vendors,,
fYjSmncFNMdDdBK3uJpKEQ,Jerk Hut Jamaican Grille,Null,4115 N 19th Ave,Phoenix,AZ,85015,33.4956607,-112.0997467,4.0,49,0,Caribbean;Restaurants,casual,quiet
gjXS2yUknnDEeFiRchWUQw,Jonathan Ritchie - State Farm Insurance Agent,Null,"633 E Ray Rd, Ste 109",Gilbert,AZ,85296,33.3203677,-111.77566270000001,3.5,3,1,Insurance;Financial Services;Auto Insurance;Home & Rental Insurance,,
RXkpc392O6FksTOrBy-MzA,AT&T Authorized Retailer,Chinatown,"7017 Spring Mountain Rd, #103",Las Vegas,NV,89117,36.1253124,-115.24623670000001,3.0,17,1,Home Services;Security Systems;Electronics;Mobile Phones;Internet Service Providers;Shopping;Professional Services,,
mz40TrEV0YGsWTiKBtz8jw,Conrad's Tire Express & Total Car Care,Null,33111 Station St,Solon,OH,44139,41.388107,-81.441448,4.0,5,1,Auto Repair;Oil Change Stations;Tires;Automotive,,
Zb9ly9dWAjxVQ6SkioNU3A,SimonMed Imaging,Null,9201 E Mountain View Rd. Ste 137,Scottsdale,AZ,85258,33.574827,-111.88076000000001,2.0,50,1,Radiologists;Diagnostic Services;Health & Medical;Diagnostic Imaging;Doctors,,
bXf05rPb8HVKRz62L4esww,# 1 Nails,Eastside,4722 E Flamingo Rd,Las Vegas,NV,89121,36.114929913299996,-115.07094997899999,4.0,53,1,Skin Care;Day Spas;Nail Salons;Hair Removal;Waxing;Beauty & Spas,,
RrLVwKtiNuMe_PTj_dl8eQ,Blind and Shutter Spot,Null,"1035 N Ellsworth, Ste 102",Mesa,AZ,85207,33.3880013426,-111.835144281,5.0,4,1,Shades & Blinds;Home & Garden;Home Decor;Contractors;Home Services;Home Cleaning;Interior Design;Shopping;Shutters,,
Dwb8cSY4iTecH0ZC7qrElg,Pearl Alteration,Rosedale,"925 Yonge Street, Unit 37",Toronto,ON,M4W 2H2,43.6774597264,-79.3889456455,3.5,3,1,Local Services;Sewing & Alterations,,
9IPwTDuFb_WF3g3iTFM4DQ,Sam's Ice Cream,Eastside,3760 E Desert Inn Rd,Las Vegas,NV,89121,36.1306345053,-115.092615625,4.5,6,0,Food;Ice Cream & Frozen Yogurt,,
wfwUkkG-IvTuOdkuKikgOw,Triple Service Automotive & Tire Centre,Null,3300 Mavis Road,Mississauga,ON,L5C 1T8,43.572016,-79.641644,1.0,3,1,Auto Repair;Tires;Automotive;Auto Parts & Supplies,,
IvA082YnM7_dE673PLOvtg,Dagermans Just For Kids,Westside,2370 S Rainbow Blvd,Las Vegas,NV,89146,36.1453994,-115.24285049999999,3.0,4,0,Shopping;Baby Gear & Furniture,,
abWt3B-dvJ1oVj83ebYoyg,Rickshaw Bar,Niagara,685 Queen Street W,Toronto,ON,M6J 1E6,43.6468732,-79.4049438,4.0,78,1,Thai;Indian;Tapas Bars;Tapas/Small Plates;Restaurants,casual,average
HewGH1vYiZpkCoXeGOsA9g,Fork & Spoon Cafe at RP's Pasta Co.,Williamson - Marquette,1133 E Wilson St.,Madison,WI,53703,43.0834989,-89.36551379999999,3.5,3,0,Restaurants;Local Flavor;Italian;Vegetarian;Sandwiches,casual,
OrvNtbtLiQnukOQqL3jP8g,Mi & Stu,LaSalle,2508 Rue Lapierre,Lasalle,QC,H8N 2W9,45.4426192,-73.6292455,4.0,7,1,Vegan;Gluten-Free;Bakeries;Food;Restaurants,casual,quiet
rF3gqVKAynwU6xz1Ljdo4A,Pita Land,Null,4901 Steeles Ave. W.,Toronto,ON,M9L 2W1,43.7707221,-79.54281209999999,3.5,8,1,Middle Eastern;Sandwiches;Restaurants;Halal,casual,average
BPAm6_JH34HB9FG5Jx1Nig,Poké Wave,Null,"9920 S Rural Rd, Ste 111",Tempe,AZ,85284,33.3212236375,-111.93042848799999,4.5,50,1,Food;Hawaiian;Restaurants;Salad;Poke,casual,quiet
n_UkzLCAMCIqhUnu-iLQyw,Bricco,Gateway District,1438 Euclid Ave,Cleveland,OH,44115,41.500913,-81.6812825,3.0,37,0,American (Traditional);Restaurants;Italian,casual,average
iQQGOsltUzipLBMeN268cA,Brooks Brothers Factory Outlet,Southeast,,Las Vegas,NV,89123,36.035749200000005,-115.1533426,2.5,3,1,Women's Clothing;Shopping;Fashion;Men's Clothing,,
o0TNSSQJywm_pN-pyx6Aqg,Carlos Appliance,Sunrise,"3020 N Walnut Rd, Ste130",Las Vegas,NV,89115,36.2144444,-115.08871880000001,1.5,3,1,Local Services;Appliances & Repair,,
aldKu_hTFdJJhYwv6Fy3tQ,George's Tastee,Null,"9021 Leslie Street, Unit 14",Richmond Hill,ON,L4B,43.8483292,-79.3829657,3.5,14,1,Caribbean;Restaurants,casual,quiet
X2lgI8CuVEsH5UDs14rMhw,Andys Wine Bar,Downtown,510 Market Street,Pittsburgh,PA,15222,40.4414335,-80.0020533,3.5,59,1,Jazz & Blues;Wine Bars;Restaurants;Arts & Entertainment;Bars;Nightlife;Cocktail Bars,,average
bVl0_l6sCwjADKRLGxsXAw,Arby's,Null,17031 N Tatum Blvd,Phoenix,AZ,85032,33.641684000000005,-111.977,2.5,15,1,Fast Food;Restaurants;American (New);Sandwiches,casual,quiet
bxZtj089f-8h195_Yp6L-Q,Mangano Las Vegas,Southeast,,Las Vegas,NV,89195,36.09,-115.15,5.0,4,1,Local Services,,
C-fone8hV5DJYENYUwzmcA,Pet Styles Dog Grooming,New Toronto,2965 Lake Shore Blvd W,Etobicoke,ON,M8V 1J5,43.600588,-79.50608000000001,3.5,5,1,Dog Walkers;Pet Services;Pet Groomers;Pets;Pet Stores;Pet Sitting,,
MBHGhr936i0slW9Bw4XIYA,Whiskey Ranch BBQ,Null,"70 S Val Vista Dr, Ste A3-419",Gilbert,AZ,85296,33.32928,-111.77462,4.0,7,1,Restaurants;Caterers;Event Planning & Services;Barbeque;Food Trucks;Food,,
-W1rsicX12yNIjsBUh6TiQ,Walton Hills Deli & Mini-Mart,Null,7601 Walton Rd,Bedford,OH,44146,41.357812,-81.545699,4.5,3,1,Restaurants;Delis,casual,average
gsd-JY5cSpkYcZT9b0dCdw,Airy Pines Boarding Kennel,Null,931 Old Frankstown Rd,Pittsburgh,PA,15239,40.452981,-79.7288348,3.5,3,1,Pet Sitting;Pets;Pet Services,,
a2S90X_nNIKXWKhWpV_5MA,Best 4 Less Beauty Salon,Eastside,"3520 E Tropicana Ave, Ste F",Las Vegas,NV,89121,36.100618100000005,-115.09849320000001,5.0,10,1,Hair Extensions;Hair Stylists;Hair Salons;Blow Dry/Out Services;Beauty & Spas,,
BKg8YIGX_5YyUczmBAyyCQ,China Passion,Sunrise,2775 S Nellis Blvd,Las Vegas,NV,89121,36.139117600000006,-115.06696950000001,4.5,77,1,Chinese;Soup;Food Delivery Services;Food;Restaurants,casual,quiet
q2iuzL_u56drbbsR7X9MhQ,Bagel World Thornhill,Null,10 Disera Dr,Thornhill,ON,L4J 9E9,43.8108268,-79.454375,3.0,20,1,Food;Restaurants;Bagels,,
YakO7e9dxaYk5WrkNyRVFQ,All City Towing,Null,922 E Gilbert Dr,Tempe,AZ,85281,33.4375751,-111.92521770000002,1.5,30,1,Towing;Automotive,,
wxkGpZEB5_U0hIMeFxL3-A,Pizzaworks,Niagara,700 King Street W,Toronto,ON,M6J,43.643909,-79.403182,2.5,8,0,Restaurants;Food;Pizza,casual,average
HxC7kYHEVO-GKHvDoeI2RQ,K Peppers,Null,"1901 Cayuga St, Ste 110",Middleton,WI,53562,43.0962004007,-89.51369458020001,3.5,97,1,Korean;Restaurants;Asian Fusion,casual,average
KjjQGzu0241FbeERM32dpQ,Books Cafe & Things,Null,208 Main St S,Newmarket,ON,L3Y 3Z3,44.066041999999996,-79.46153050000001,4.0,8,1,Ice Cream & Frozen Yogurt;Furniture Stores;Shopping;Home & Garden;Food;Coffee & Tea;Books;Mags;Music & Video;Bookstores,,
xr_zP_1T4e1jongw5faR0g,Mulqueen Sewing Centers,Null,3716 E Main St,Mesa,AZ,85205,33.416076399999994,-111.75081709999999,3.0,40,1,Home & Garden;Sewing & Alterations;Fabric Stores;Specialty Schools;Education;Local Services;Embroidery & Crochet;Arts & Crafts;Appliances & Repair;Appliances;Art Supplies;Shopping,,
VGOpZ15XmabMYuxW1J8zqQ,Blockbuster Video,Null,3234 S Mill Ave,Tempe,AZ,85281,33.3939901,-111.9396041,4.5,3,0,Shopping;Books;Mags;Music & Video;Videos & Video Game Rental,,
JXgt_tfEcRChO9OUKnL9dg,Six:02,Null,7014 E Camelback Rd,Scottsdale,AZ,85251,33.5027898,-111.92923970000001,4.5,3,1,Sports Wear;Sporting Goods;Fashion;Shopping,,
wfO69JUp-H8kbm3dn0zcnA,Hawaii Ice,Null,123 Avenue Donegani,Pointe-Claire,QC,H9R 2W3,45.450156799999995,-73.7914574,5.0,3,0,Food;Coffee & Tea;Ice Cream & Frozen Yogurt,,
jDlvFXuxis4rC2NcWQbqig,Thomas M. Siebel Center for Computer Science,Null,201 N Goodwin Ave,Urbana,IL,61801,40.1140258,-88.2248073,5.0,6,1,Education;Colleges & Universities,,
Gke_dDm4Chc4BtYkbgLZ5Q,Smoke Wizard,Squirrel Hill,5874 Forbes Ave,Pittsburgh,PA,15217,40.4378411,-79.9201088,3.0,6,1,Tobacco Shops;Shopping,,
C3Bas8Aamp2_eAWAE2R-Ig,Walk Breezily Spa,Southeast,"8810 S Maryland Pkwy, Ste 115",Las Vegas,NV,89123,36.029633000000004,-115.1353179,5.0,26,1,Beauty & Spas;Day Spas;Massage,,
yO_N4pY03vjbMslE4HtnEA,Nazareth,Laval,550 Boulevard Cure Labelle,Laval,QC,H7L 4V6,45.591040899999996,-73.78513240000001,4.5,10,1,Salad;Middle Eastern;Barbeque;Restaurants;Mediterranean,casual,average
H8eyY-2Yia6iid71CMf3fg,Mama's Italian Kitchen,Null,16852 E Parkview Ave,Fountain Hills,AZ,85268,33.6058,-111.715544,3.0,3,0,Pizza;Restaurants;Italian,casual,
Lye4bXWeHbifdUMlFI4D5Q,Westech Recyclers,Null,850 W Lincoln St,Phoenix,AZ,85007,33.4421466,-112.08364340000001,4.5,7,1,Recycling Center;Local Services,,
iFZpVdFnuVh9cSrBCpjHmA,Ja-Makin-Me-Laugh,Downtown,"the D Casino Hotel, 301 Fremont St",Las Vegas,NV,89101,36.169390299999996,-115.1430844,4.5,11,0,Arts & Entertainment;Nightlife;Cabaret;Comedy Clubs;Performing Arts,,average
3glVZZh_vyZH1VvPU0307A,Enoteca Sociale,Little Portugal,1288 Dundas St W,Toronto,ON,M6J 1X7,43.649691499999996,-79.4257125,4.0,260,1,Restaurants;Italian,casual,average
n_a-dQ0mzMxTvP7V8vvTWw,Calabria,Null,2450 Sheppard Avenue E,Toronto,ON,M2J 1X1,43.7750813,-79.3240075,2.0,4,0,Italian;Food;Pizza;Restaurants,casual,
ofTjkad-MksyUyQ4IDNazQ,Bruster's Real Ice Cream,Null,2603 Hwy 160 W,Fort Mill,SC,29708,35.052784100000004,-80.99240479999999,3.5,39,1,Ice Cream & Frozen Yogurt;Juice Bars & Smoothies;Desserts;Food,,
7CcNGVijs4-6Cg-nkRABHQ,Topline Pest Eliminators,Northwest,6356 Maratea Ave,Las Vegas,NV,89130,36.249381299999996,-115.2324508,5.0,11,1,Pest Control;Local Services,,
Y1jrsVAWK1bFC_s1CJmICw,Go Topoki,Willowdale,"5 Northtown Way, Unit 5",Toronto,ON,M2N 7A1,43.77488384350001,-79.4140006774,3.5,17,1,Restaurants;Food;Specialty Food;Korean;Desserts,casual,average
R3FZENdOY_TTKykKsJIuRA,Educo Salon,Yonge and Eglinton,"2245 Yonge St, 2nd Flr",Toronto,ON,M4S 2B1,43.706317999999996,-79.398033,4.5,110,1,Beauty & Spas;Hair Salons,,
CfDHrCHi1-oJSKEemgeqrQ,Arizona Falls,Null,5802 E Indian School,Phoenix,AZ,85018,33.4907169,-111.9560058,4.5,19,1,Local Flavor,,
TjKE1Ji-XAdYDlxYMKvZAw,Krispy Krunchy Chicken,Null,900 W Bradley Ave,Champaign,IL,61821,40.127171000000004,-88.257965,4.0,9,1,Chicken Wings;Restaurants,casual,average
Yd9haFUDaoLxBk14xgmTsA,Stool Pigeons Coop & Grill,University City,9609 N Tryon St,Charlotte,NC,28262,35.317215000000004,-80.739129,3.0,8,0,Nightlife;Chicken Wings;Burgers;Bars;Sports Bars;American (Traditional);Restaurants,casual,
ST66dWiUqYnvrD7zT4QBNw,Rito's Mexican Food- Surprise,Null,"15643 N Reems Rd, Ste 106",Surprise,AZ,85374,33.6262053218,-112.39316191799999,4.0,281,1,Mexican;Restaurants,casual,average
04u9KK6f-FUnU69mioNP2g,Primrose School at Palm Valley,Null,14260 W Indian School Rd,Goodyear,AZ,85395,33.4873526188,-112.365492582,4.0,11,1,Preschools;Education;Elementary Schools;Local Services;Child Care & Day Care,,
3jh0v0Gz7OOhDmWnQ7sP5g,Vegas Vapolife,Centennial,"7220 W Azure Dr, Ste 120",Las Vegas,NV,89130,36.274165999999994,-115.252954,4.5,8,0,Tobacco Shops;Shopping;Vape Shops,,
e2r5_zNwNu4kVBnpFRv0AQ,The Fairmont Royal York,Financial District,100 Front Street W,Toronto,ON,M5J 1E3,43.6456941329,-79.3818844799,3.5,187,1,Hotels;Hotels & Travel;Event Planning & Services,,
J5Rqkd6yg9nuKi_KfCSTAA,Datta Taxi & Charter,Null,703 W Stoughton St,Urbana,IL,61801,40.113363,-88.21648499999999,5.0,25,1,Airport Shuttles;Hotels & Travel;Airports;Local Services;Transportation;Taxis,,
SBPttAVjzEnN3VE6sKiaMg,Jo Jo China Bistro,Null,"7800 Rea Rd, Ste A",Charlotte,NC,28277,35.061319,-80.814423,3.5,35,0,Chinese;Restaurants,casual,average
dTA9Dp9Ui3igZlS30trPvA,HairMasters,Summerlin,"2225 N Rampart Blvd, North Rampart Mall",Las Vegas,NV,89128,36.201961,-115.28314099999999,4.0,8,0,Barbers;Hair Salons;Beauty & Spas;Hair Stylists,,
wFjqTolLDT38aZIbg2Oi8w,Center For Dermatology & Plastic Surgery,Null,"3530 S Val Vista Dr, Ste B-109 &110",Gilbert,AZ,85297,33.2858173,-111.7555219,4.0,4,1,Plastic Surgeons;Doctors;Beauty & Spas;Dermatologists;Medical Spas;Health & Medical;Cosmetic Surgeons;Skin Care,,
_R-Szi10pRQm3h7wHMRElQ,Med-Cure Internal Medicine,Null,"13657 W Mcdowell Rd, Ste 118",Goodyear,AZ,85395,33.463384818200005,-112.35311507600001,2.5,3,1,Doctors;Health & Medical;Internal Medicine,,
iShYGVs0_JEyJokdyjSiJg,American Windshield & Auto Glass Replacement,Null,3305 W Quail Ave,Phoenix,AZ,85027,33.67957,-112.13073200000001,4.0,5,1,Auto Glass Services;Automotive;Windshield Installation & Repair,,
BnKRzpgb_LRLcI9thHcMPw,Gnc General Nutrition Center,Null,334 W Lake Mead Pkwy,Henderson,NV,89015,36.0372923,-114.992925,5.0,4,1,Specialty Food;Vitamins & Supplements;Health Markets;Food;Shopping,,
I8AfYlJSDYeFmDaTYnjPAw,Firestone Mastercare Service Centers,Null,600 Monroeville Mall,Monroeville,PA,15146,40.429093,-79.796009,3.5,3,1,Auto Repair;Tires;Automotive,,
JxKWfZ6hG8iRnK8QL65jTw,Starbucks,The Strip,3790 S Las Vegas Blvd,Las Vegas,NV,89109,36.1022525987,-115.174478525,2.0,104,1,Food;Coffee & Tea,,
fPjcOmoXikZKk_af3dErGA,United Airlines,Null,1000 Airport Blvd,Coraopolis,PA,15108,40.4957465,-80.256206,2.5,23,1,Hotels & Travel;Airlines;Transportation,,
IW2aHAzU5p60T7xUTLPaIw,Kneaders Bakery & Cafe,Null,6611 E McDowell Rd,Mesa,AZ,85215,33.4660512656,-111.68762203600001,3.0,62,1,Bakeries;Cafes;Restaurants;Food,casual,average
NhCc16EzL8LyR5va_pwfSA,Stages Music,Null,20801 N Scottsdale Rd,Scottsdale,AZ,85255,33.67593970000001,-111.9232431,4.0,5,1,Arts & Entertainment;Shopping;Musical Instruments & Teachers,,
AxQpXcQvCnmCV0dai8I3ew,Addicted Salon Spa & Tanning,Lawrenceville,5165 Butler St,Pittsburgh,PA,15201,40.4801478,-79.9547436,5.0,20,1,Hair Extensions;Hair Salons;Beauty & Spas;Eyelash Service;Tanning,,
TMHLATP8gs5FRnL095tpgA,Sushi Villa Japanese Restaurant & Bar,Swansea,2181 Bloor St W,Toronto,ON,M6S 1N2,43.6512632,-79.4746368,2.5,22,0,Japanese;Restaurants;Sushi Bars,casual,average
Ymiis-yrhEVFzifOCRlxuA,Big Lots - Phoenix,Null,2330 W Bethany Home Rd,Phoenix,AZ,85015,33.5252602,-112.10965729999998,3.0,11,1,Shopping;Department Stores;Discount Store;Home Decor;Furniture Stores;Fashion;Home & Garden,,
H63ERmabF5A0NpVkGNjBxg,Topaz,Null,4020 Arville St,Las Vegas,NV,89103,36.1168209,-115.19730179999999,4.0,4,1,Apartments;Real Estate;Home Services,,
3ffpa2xSDjK4XhF2E-jp1A,Magic Oven,The Danforth,1450 Danforth Avenue,Toronto,ON,M4J 1N4,43.6829336,-79.3263672,3.5,13,1,Restaurants;Pizza,casual,
SQBJs3j-8HlS6ttKNujXVQ,Enterprise Rent-A-Car,Null,3839 Center Rd,Brunswick,OH,44212,41.238339,-81.832553,5.0,3,1,Car Rental;Hotels & Travel,,
eZElo4QB2XZswZ731mjhqQ,Show Us Your Tips,Anthem,"2470 Paseo Verde Pkwy, Ste 125, Body Spa Campus",Las Vegas,NV,89074,36.0194946,-115.0947223,5.0,8,1,Beauty & Spas;Nail Salons,,
oNCF7oHyKYlGLu_kHV2MSg,Lodge Wood Fired Grill,Null,10175 Weddington Rd NW,Concord,NC,28027,35.361272799999995,-80.71160079999999,2.5,6,1,Restaurants;Sandwiches;Steakhouses;American (Traditional),casual,
wOzuxhzGD3_S-r3WuTPr3Q,Balaros Hair Phase II,Null,"2081 N Arizona Ave, Ste 127",Chandler,AZ,85225,33.337383,-111.84111809999999,4.5,3,0,Hair Salons;Beauty & Spas,,
f1TT5A_0eg4n-apKU0z77A,Moores Clothing for Men,Null,75 Billy Bishop Way,Toronto,ON,M3K 2C8,43.716761,-79.456766,1.5,3,1,Fashion;Men's Clothing;Bespoke Clothing;Shopping;Formal Wear;Shoe Stores,,
QpOAv584eb-ecG4TLEm95g,China a Go Go,Southeast,"505 E Windmill Ln, Ste D",Las Vegas,NV,89123,36.041469,-115.151928,3.5,139,1,Chinese;Restaurants,casual,average
iLSlZ1XcL7KjfVVcJrBG2g,Parker Banner Kent & Wayne,Null,"21500 Catawba Ave, Ste A",Cornelius,NC,28031,35.480594200000006,-80.85853900000001,4.5,13,1,Books;Mags;Music & Video;Tabletop Games;Comic Books;Shopping,,
QZTuWtcvJ-1wYidp70OwGA,Select Kids Pediatric Therapy,Anthem,750 Coronado Center Dr,Henderson,NV,89052,36.003759,-115.106801,4.0,5,1,Health & Medical;Physical Therapy,,
zO_Ii1jMRcxFP4IiIzwtyg,3sixty Auto Tech,Westside,5150 W Charleston Blvd,Las Vegas,NV,89146,36.1593940169,-115.21170749299999,5.0,19,1,Oil Change Stations;Tires;Automotive;Auto Repair,,
pLIMSdHC2F1qQ6Hm9W3QkQ,Premier Pool Care,Null,11228 E Ramblewood Cir,MESA,AZ,85212,33.3440899,-111.5911885,2.5,3,1,Pool Cleaners;Home Services,,
I6suYpV7mM39v_M65NkmUA,Dentists on Bloor,Dovercourt,964 Bloor Street W,Toronto,ON,M6H 1L6,43.661389899999996,-79.4288825,4.5,13,1,Dentists;General Dentistry;Health & Medical;Endodontists;Cosmetic Dentists,,
ImD9jhFSAXWlTr8EHCwv9Q,Sam's Club,Null,289 Mount Nebo Pointe Rd,Pittsburgh,PA,15237,40.5341189,-80.0679803,3.5,11,1,Shopping;Automotive;Department Stores;Tires;Fashion,,
dcZOgdh8vDxe0HUR4uNVZw,SCP Chiropractic,Null,4767 N 20th St,Phoenix,AZ,85016,33.507107468600005,-112.03739620700001,4.5,13,1,Health & Medical;Chiropractors,,
hSS6EeCCFIL8p2fKwc56gA,Astro Auto Sales,Downtown,1430 S Main St,Las Vegas,NV,89104,36.1537314,-115.15423500000001,1.5,7,1,Automotive;Car Dealers,,
EfCokOBABzEFRlnvKr6-tw,Takebashi Japanese Noodle House,Null,505 Hwy 7 E,Markham,ON,L3T 7T1,43.8420875,-79.38598929999999,2.5,5,0,Restaurants;Japanese,casual,
DiEZNTT3y-uqeolWVg5nJQ,Addison Électronique,Villeray-Saint-Michel-Parc-Extension,"8018, 20E Avenue",Montréal,QC,H1Z 3S7,45.569592799999995,-73.60358259999998,4.5,10,1,Shopping;Electronics,,
QC9bLPcNk6ymAOHf03pHhQ,Del Taco,Spring Valley,5180 S Fort Apache Rd,Las Vegas,NV,89148,36.094531200000006,-115.29673319999999,3.5,26,1,Restaurants;Mexican,casual,quiet
MvpWQ8tGzs5goss-cY0-WQ,Holiday Inn Express Pittsburgh-North,Null,10 Landings Dr,Harmarville,PA,15238,40.540254,-79.8270514,4.0,9,1,Event Planning & Services;Hotels;Venues & Event Spaces;Hotels & Travel,,
YgwHS8QuPstlXah-Abl-lg,MyEvent,Ville-Marie,"221 De La Commune Street W, Suite 305",Montréal,QC,H2Y 2C9,45.501738200000005,-73.55378929999999,5.0,3,1,Web Design;Professional Services;Computers;Shopping,,
kQGJ5QUJ0BAIpmYYtf7Uqw,Upper Deck By Fran's,Downtown Core,2-20 College Street,Toronto,ON,M5G 1K2,43.6614505,-79.384068,3.0,25,1,Venues & Event Spaces;Nightlife;Event Planning & Services;Bars;Restaurants;American (Traditional),casual,average
BN4ozKwfzS9MNVXh6tpevg,YogaVision,Null,"6956 Financial Drive, Unit 3",Mississauaga,ON,L5N 8J4,43.610796,-79.748754,5.0,4,1,Pilates;Active Life;Fitness & Instruction;Yoga;Meditation Centers,,
EksV9mtXOQ7HGhPfyk5DMQ,Scoops & More,Null,7012 Steubenville Pike,Oakdale,PA,15071,40.444759000000005,-80.17424799999999,4.5,23,1,Food;Ice Cream & Frozen Yogurt;Restaurants;Chicken Wings;Burgers;American (Traditional),casual,quiet
xJ_L2sJN1zk3VDpZELrV_Q,Eggspectation,Ville-Marie,12 Rue Notre-Dame Est,Montréal,QC,H2Y 3P7,45.506542200000005,-73.55538259999999,4.0,83,1,Bars;Breakfast & Brunch;Restaurants;Nightlife;Cafes,casual,average
ySFCgNj9n36-bHA40R_nBA,Kanda,Laval,1110 Boul Le Corbusier,Laval,QC,H7N 0A8,45.557851899999996,-73.7249864,2.0,15,1,Restaurants;Sushi Bars,casual,quiet
vRbZOal_ue8wK9DBzXvROg,Homewood Suites by Hilton Phoenix Metro Center,Null,2536 West Beryl Ave,Phoenix,AZ,85021,33.579659,-112.11468500000001,3.0,22,1,Hotels & Travel;Event Planning & Services;Hotels,,
29nrbw1tjQjt2RBrAQYfTA,Moondog Records,University,"4440 S Maryland Pkwy, Ste 112",Las Vegas,NV,89119,36.108515999999995,-115.136784,4.5,54,1,Vinyl Records;Shopping;Books;Mags;Music & Video;Music & DVDs,,
EBnR5M6upBcHfMK4063_Sw,Mob City Pizza,Null,4485 South Jones,Las Vegas,NV,89103,36.1075559,-115.22574159999999,3.0,10,1,Restaurants;Italian,casual,
ATIsL2563dMDwWxy9v645A,Heroic Fitness's Transformation Station,NoDa,"514 E 15th St, Unit 7",Charlotte,NC,28206,35.2327942,-80.8255179,3.0,11,1,Weight Loss Centers;Fitness & Instruction;Active Life;Trainers;Health & Medical,,
Ax6BS5f88QI7q33zBhrjEw,Sun Baked Sweet Treats,Null,16842 E Parkview Ave,Fountain Hills,AZ,85268,33.605854,-111.71596399999999,4.5,38,1,Donuts;Sandwiches;Cupcakes;Food;Restaurants;Delis;Bakeries,casual,quiet
24nbmUsYIsrJEu_zEY0u5A,Vape Crusades,Null,522 Washington Ave,Bridgeville,PA,15017,40.3580778,-80.11241070000001,3.5,3,1,Tobacco Shops;Shopping;Vape Shops,,
mtjvQctnZEB-c__x5LXCvA,Glaze Teriyaki,Capitol,563 State St,Madison,WI,53703,43.0748641,-89.3954296,3.5,27,1,Restaurants;Asian Fusion;Fast Food;Japanese,casual,average
zdlYqiLgJbs42J_Jk3sMGA,Kwan Naturopathic,Null,"5112 N 40th St, Ste 203",Phoenix,AZ,85018,33.513169,-111.99670400000001,5.0,5,1,Doctors;Health & Medical;Naturopathic/Holistic,,
pw9jaU8D8JbFjvJf5BIBCQ,Arizona Metro Hauling,Null,8 E Mclellan,Mesa,AZ,85201,33.444408,-111.830926,5.0,9,1,Local Services;Junk Removal & Hauling,,
mJqc71ZLSZcCBX3GN_ABEA,The Arizona Republic,Null,200 E Van Buren St,Phoenix,AZ,85004,33.4518174,-112.070865,1.5,120,1,Mass Media;Print Media,,
f9c6LTUzZb9NpRtb2E_nvA,Legacy Oriental Medical Center,Spring Valley,"9163 W Flamingo Rd, Ste 110",Las Vegas,NV,89147,36.113912899999995,-115.291844,5.0,16,1,Massage Therapy;Traditional Chinese Medicine;Health & Medical;Acupuncture,,
vYJ6urQKOPVox5r9MmzYtA,Frazee Water Well Drilling,Null,"515 E Carefree Hwy, Ste 547",Phoenix,AZ,85085,33.7983301,-112.0670277,1.0,3,1,Contractors;Local Services;Home Services;Well Drilling,,
4LYchgaHnaveSlvNtcmTxw,Arizona Pain & Spine Institute,Null,2045 S Vineyard,Mesa,AZ,85210,33.3775512,-111.8435473,2.5,18,1,Doctors;Orthopedists;Health & Medical,,
L3t7UG4cC1-ar1jh96c1KQ,Streets of New York,Null,6638 E Superstition Springs Blvd,Mesa,AZ,85206,33.385161,-111.6872749,1.5,5,0,Restaurants;Pizza,casual,
Zd5bvGvlSmksBJXrevtxEQ,Isaan Der,The Junction,2961 Dundas Street W,Toronto,ON,M6P 1Z2,43.66528579999999,-79.4679385,4.0,37,1,Thai;Restaurants,casual,average
d7Io60BKdQqRb1YEohmO7A,Grumpy's Lounge,Null,29137 Euclid Ave,WICKLIFFE,OH,44092,41.60464,-81.47725190000001,3.0,6,1,Nightlife;Bars,,
hEB8FaS1EvWds03l7QGXyw,Neptunes Waters,Null,"23425 N 39th Dr, Ste 105",Glendale,AZ,85310,33.6991851808,-112.14178025700001,5.0,3,1,Ice Cream & Frozen Yogurt;Food;Shaved Ice,,
zO2558leuUH9jeEs_8hfOQ,Sushi Nomi,Roncesvalles,67 Roncesvalles Avenue,Toronto,ON,M6R 2K6,43.64126629999999,-79.4469665,4.5,48,1,Restaurants;Sushi Bars,casual,quiet
zLFxAncbXi4xADAvZV471A,Fox's Pizza Den,Carnegie,221 Second Ave,Carnegie,PA,15106,40.4032766,-80.08957240000001,4.0,4,1,Restaurants;Pizza;Sandwiches,,
r0PCnXt0lv87aawDTlY5Rg,Autozone,Null,4714 Mcknight Rd,Pittsburgh,PA,15237,40.5199616,-80.0045059,3.5,3,1,Auto Parts & Supplies;Automotive,,
CDryASuglHotRaP-8nzYUg,Sunrise Mountain/Frenchman Mountain,Null,6885 E Lake Mead Blvd,Las Vegas,NV,89156,36.2022534115,-114.98926129200001,4.5,37,1,Active Life;Hiking,,
vamaMT0rxrJKCVyBNa2i6Q,Spence Diamonds,Null,25 Square One Drive,Mississauga,ON,L5B 2C9,43.5977977371,-79.6407079697,2.5,5,1,Shopping;Jewelry,,
TvjCfLVMJ_uJIh_1WdUq4w,Northpointe Apartments,Null,3333 N Michael Way Ofc,Las Vegas,NV,89108,36.175,-115.136389,2.5,3,1,Home Services;Apartments;Real Estate,,
SQ-8xz0Kx0loqnlnoeWvNA,Moncada Windows Doors & Siding,The Danforth,1800 Danforth Avenue,Toronto,ON,M4C 1H8,43.684456899999994,-79.31869209999999,2.5,3,1,Home & Garden;Hardware Stores;Contractors;Home Services;Shopping,,
hep6meAKTP55OZImraynwQ,Hyang Jin Japanese,Côte-des-Neiges,5332 Chemin Queen-Mary,Montréal,QC,H3X 1T7,45.4829186,-73.6294696,4.0,11,1,Restaurants;Japanese,casual,quiet
2LX8l4t5avflJXNh60GAag,Express Art & Frame,Null,3112 E Camelback Rd,Phoenix,AZ,85016,33.510613298,-112.015508169,5.0,6,1,Glass & Mirrors;Home & Garden;Interior Design;Home Services;Arts & Entertainment;Arts & Crafts;Art Galleries;Home Decor;Shopping;Framing,,
H_2SXug5iz7kGGSp3iDqYQ,The CORE Institute- Mesa,Null,"1450 S Dobson Rd, Ste B-122",Mesa,AZ,85202,33.388213300000004,-111.87653929999999,3.0,19,1,Physical Therapy;Orthopedists;Health & Medical;Podiatrists;Doctors,,
7eQoxWr9RzyCB9IFvqHUPA,Pizza Heaven Bistro,Null,5150 N 7th St,Phoenix,AZ,85014,33.5124076744,-112.065353394,4.0,374,1,Chicken Wings;Sandwiches;Pizza;Italian;Restaurants,casual,average
Ip9AkPzQ_tXKFS1kTAer0w,Time Warner Cable,Ballantyne,13840 Ballantyne Corporate Pl,Charlotte,NC,28277,35.0627954,-80.85495209999999,1.0,6,1,Television Service Providers;Home Services,,
Y-bFPmf15jvrE8ZP9OCTgA,Calli's,Regent Square,7606 Forbes Ave,Pittsburgh,PA,15221,40.43966629999999,-79.89736640000001,3.5,7,0,Restaurants;American (Traditional),casual,
CWyQP_9yH9wqVR2ueQGXFQ,Reclaiming Peace Massage,Null,7041 N 23rd Dr,Phoenix,AZ,85021,33.5401277,-112.1085406,5.0,19,1,Health & Medical;Massage Therapy;Massage;Beauty & Spas,,
3MFd1h2Cp3HSTLjgCaxxCg,Safe & Sound Installations,Scarborough,180 Nantucket Boulevard,Scarborough,ON,M1P 2N9,43.7580292,-79.2753975,5.0,4,1,Car Stereo Installation;Automotive,,
5xTHY_U8jn6MnXJMOSH69g,Kenzo Ramen,Null,"720 Burnhamthorpe Road W, Unit 1",Mississauga,ON,L5C 3X3,43.5780657694,-79.6524653406,3.5,210,1,Soup;Restaurants;Japanese;Vegetarian,casual,average
MSu8YPwzTThDfFobFr9Orw,Snappy Auto Spa,Null,4720 E Baseline Rd,Phoenix,AZ,85042,33.378748200000004,-111.98050020000001,3.0,26,0,Car Wash;Automotive,,
LEIYr4WpyVHiPLQB8x8FpQ,Christ's Church of the Valley CCV,Null,1565 N 113th Ave,Avondale,AZ,85392,33.4617172,-112.30079930000001,4.0,7,1,Religious Organizations;Churches,,
-fuhuSAfiPUHRvjJwRJLpQ,Betty Boo's International Cuisine,Null,1368 N Arizona Ave,Chandler,AZ,85225,33.3272385,-111.84263759999999,3.5,4,0,Soul Food;Restaurants;Southern,casual,quiet
r78AHYzmDKDffJAwrB5aIg,Bonefish Grill,Null,1835 Washington Rd,Upper St Clair,PA,15241,40.3451178158,-80.056861396,3.5,92,1,Restaurants;American (New);Cocktail Bars;Seafood;Bars;Nightlife,casual,average
Hza9Lq1vqA4yTElotZVTDA,Cafe 109,Southeast,"750 E Pyle Ave, Ste 109",Las Vegas,NV,89183,36.006928,-115.146662,4.0,9,0,Thai;Restaurants;Cafes,casual,quiet
tf8Ge1hPe-zGZIHI2Cgvyg,Tucky's Smokin BBQ,Null,308 N Boulder Hwy,Henderson,NV,89015,36.0420457,-114.9838133,4.0,225,1,Restaurants;Barbeque,casual,average
8xrwjD-Udv7cm_emVcVo3A,Giovanni's Pizza & Pasta,Downtown,123 6th St,Pittsburgh,PA,15222,40.4434009262,-80.0024984676,3.0,147,1,Food;Pizza;Restaurants;Salad;Food Delivery Services;Italian,casual,average
azoEjNRQwdqhaVjyk3UrRA,Cascade Cafe,Null,301 Broad St,Elyria,OH,44035,41.367901,-82.10414399999999,4.5,17,1,Breakfast & Brunch;American (Traditional);Restaurants,casual,quiet
AeOam5dtGd5Ifmmd4IFj-g,The Flower Diva,Null,219 Main St,Pineville,NC,28134,35.0851948,-80.8895429,5.0,14,1,Florists;Flowers & Gifts;Shopping,,
V0ZBqwBGsYuihpUbju_IQg,Davenport Garden Centre,The Annex,368 Davenport Rd,Toronto,ON,M5R 1K6,43.6757908,-79.40210440000001,4.0,4,1,Shopping;Home & Garden;Nurseries & Gardening,,
WRegQR-4JCnv7Lb0BYzFCw,CPR Cell Phone Repair Charlotte - Myers Park,Null,1630 E Woodlawn Rd,Charlotte,NC,28209,35.1718448665,-80.8478612846,4.5,27,1,Shopping;Telecommunications;Electronics;Professional Services;Mobile Phones;Local Services;Electronics Repair;Mobile Phone Repair;IT Services & Computer Repair,,
5-LsgxVQfefjMdoGQ5AARA,Fancy Faces,Null,,Phoenix,AZ,85070,33.2933113,-112.0635264,4.0,9,1,Party & Event Planning;Party Characters;Face Painting;Event Planning & Services,,
jEIstIhHuH8FxzIEOTnB1w,Pizza Pit,Null,130 N Main St,Oregon,WI,53575,42.9267725,-89.38393559999999,3.5,4,1,Sandwiches;Restaurants;Pizza;Italian,casual,average
GKvJpy3SOXdZ3TOiYkAj8Q,Honey's Beestro,Church-Wellesley Village,504 Jarvis St,Toronto,ON,M4Y 2H6,43.667232399999996,-79.3789771,3.0,15,0,Southern;Restaurants,casual,average
R-9S_ciN8-Kqf6Ixc5yWcw,Sufei Reflexology Massage,Null,"8160 W Union Hills Dr, Ste B-201",Glendale,AZ,85308,33.653337,-112.234862,4.0,14,1,Massage;Health & Medical;Beauty & Spas;Reflexology,,
JXcXKDb8PxJ7Um4ryHkYkw,ABCD Computers Mobile Service,Null,6625 Navio Dr,Las Vegas,NV,89103,36.116432399999994,-115.23685259999998,4.5,33,1,IT Services & Computer Repair;Local Services,,
vX8L0KhrqjqpU6o1tBhAwg,India Beau Village,Villeray-Saint-Michel-Parc-Extension,640 Rue Jarry O,Montréal,QC,H3N 1G6,45.5308768,-73.6355917,2.5,14,1,Indian;Restaurants,casual,average
bodWg_R81cZYjBusC_0L9Q,The Singing Lady Consignment Emporium,Etobicoke,"781 The Queensway, Suite J",Etobicoke,ON,M8Z 1N4,43.6256396,-79.5057879,2.5,7,1,Thrift Stores;Shopping;Antiques,,
6a4-SPP4QJbJuHoMhPKnVQ,Veracruz Mexican Restaurant,Oakland,3715 Forbes Ave,Pittsburgh,PA,15213,40.441467700000004,-79.9574362,3.0,29,0,Restaurants;Mexican,casual,average
zki75FDORLkeFQvf2vmF8w,Chick-fil-A,South Park,4400 Sharon Rd,Charlotte,NC,28211,35.152910999999996,-80.83291700000001,2.5,10,1,Event Planning & Services;Restaurants;Fast Food;Caterers,casual,
UaMq3DUhtkoZ5WCEQm2T9g,Silver Spoon,Scarborough,1548 Warden Avenue,Toronto,ON,M1R 2S8,43.76351376939999,-79.3016264237,2.5,9,1,Pakistani;Restaurants;Indian,casual,average
aR8Gm4xQLKIP7PI3NqZ1rA,J M Chapman Agency - American Family Insurance,Null,7055 E Thomas Rd,Scottsdale,AZ,85251,33.480086,-111.9296277,5.0,4,1,Home & Rental Insurance;Insurance;Financial Services;Life Insurance;Auto Insurance,,
e-Y2ZCpcwszBYn_Z28eHRw,Loblaws Supermarkets,Null,650 Dupont Street,Toronto,ON,M6G 4B1,43.6721112,-79.42099870000001,3.0,28,1,Grocery;Food,,
DbJco15A2QEk26ZXZ43rOw,Pizza Bogo,Null,180 W Streetsboro St,Hudson,OH,44236,41.238548,-81.44962629999999,3.5,7,0,Restaurants;Pizza,casual,quiet
TYZIMuHwhZo_Hizenmf8Pg,BZ's Bar and Grill,North Side,140 Federal St,Pittsburgh,PA,15212,40.448071,-80.00383509999999,3.0,76,0,Restaurants;American (New);Nightlife;Bars,casual,average
ZElIifFslL_948I-hI_ukw,Zovko Bros,South Side,2424 E Carson St,Pittsburgh,PA,15203,40.427648,-79.970147,3.0,7,1,Auto Repair;Automotive,,
FHpwOEprGWDvKjLgzq6sjA,Your Beauty Call,The Strip,Las Vegas Blvd,Las Vegas,NV,89109,36.1231481,-115.1709535,4.5,36,1,Beauty & Spas;Makeup Artists;Hair Salons,,
5_pS_1pBr6V2gz1y3SxIcQ,Old Phoenix Barber Parlor,Null,1532 E McDowell Rd,Phoenix,AZ,85006,33.465945,-112.04858370000001,4.5,12,0,Barbers;Beauty & Spas,,
sJjawlWJe1x5SaccDzfUZA,Fu Kou Le Chinese Cuisine,Scarborough,668 Silver Star Boulevard,Toronto,ON,M1V 5N1,43.8226820152,-79.3009538949,2.5,3,0,Restaurants;Chinese,,
xHdw3KQ2VRECFb5XhvHgig,Tide Dry Cleaners Scottsdale,Null,7000 E Shea Blvd,Scottsdale,AZ,85254,33.5823851813,-111.93010605299999,3.5,23,1,Dry Cleaning;Laundry Services;Sewing & Alterations;Local Services;Dry Cleaning & Laundry,,
XmZX5wwhmL6Cfz0vBs0lxQ,Momo's,Null,196 Robert St,Toronto,ON,M5S 2K7,43.662775200000006,-79.40396820000001,3.5,18,0,Middle Eastern;Food;Restaurants;Bakeries,casual,average
Qb-BQrDZCxP1VMJ7gq7BJg,Eggspectation,Plateau-Mont-Royal,198 Avenue Laurier O,Montreal,QC,H2T 2N8,45.520842071400004,-73.5945402306,4.0,13,0,Restaurants;Breakfast & Brunch,casual,average
-h6wR73rdGn69FXHLQkStg,Sparkle Discount Cleaners,Null,3780 Bathurst St,North York,ON,M3H 3M6,43.73813079999999,-79.4346321,5.0,4,1,Laundry Services;Dry Cleaning & Laundry;Local Services,,
s1zfzxSH0ms6ZjpB01FA3Q,Desert Mission Food Bank,Null,9229 N 4th St,Phoenix,AZ,85020,33.5705544,-112.0681155,5.0,5,1,Community Service/Non-Profit;Food Banks;Grocery;Food;Local Services,,
F8t-nhjDrvLX3DeUlh-5Pw,America's Best Contacts & Eyeglasses,Null,8940 E Talking Stick Way,Scottsdale,AZ,85250,33.538424,-111.88894779999998,3.5,3,1,Shopping;Ophthalmologists;Eyewear & Opticians;Optometrists;Doctors;Health & Medical,,
jkJuwGa227qpQjT34TrECQ,Subway,South Side,2771 E Carson St,Pittsburgh,PA,15203,40.426345399999995,-79.96584179999999,4.0,7,1,Sandwiches;Restaurants;Fast Food,casual,average
